NUM_POSTE;NOM_USUEL;COMMUNE;LIEU_DIT;DATOUVR;DATFERM;LAT;LON;LAMBX;LAMBY;ALTI;TYPE_POSTE_ACTUEL
3005002;ARCHIGNAT-SPC;ARCHIGNAT;SPC-223-LE SIGNAL-DE-L-AGE;2017-12-01;;46.332500;2.385833;6037;21480;557;5
3022002;BELLENAVES-SPC;BELLENAVES;SPC-222-Bellenaves;2004-08-01;;46.200167;3.085333;6577;21336;338;5
3092002;CRESSANGES-SPC;CRESSANGES;SPC-223-CRESSANGES;2017-12-01;;46.446833;3.145000;6621;21611;473;5
3127005;HERISSON-SPC;HERISSON;SPC-222-Hérisson;2004-08-01;;46.507667;2.712167;6288;21676;203;5
3165005;LE-MAYET-DE-MONTAGNE-SPC;LE MAYET-DE-MONTAGNE;SPC-222-Le Mayet-de-Montagne;2004-08-01;;46.072833;3.661667;7025;21200;540;5
3185008;MONTLUCON-SPC;MONTLUCON;SPC-223-Montluçon;2004-08-01;2011-08-25;46.351667;2.598333;6201;21502;208;5
3186003;MONTMARAULT-SPC;MONTMARAULT;SPC-223-Montmarault;2004-08-01;;46.315000;2.953333;6475;21463;475;5
3190003;MOULINS-SPC;MOULINS;SPC-223-Moulins;2004-08-01;;46.561667;3.325667;6758;21740;214;5
3253002;SAINT-POURCAIN-SUR-BESBRE-SPC;SAINT-POURCAIN-SUR-BESBRE;SPC-223-St-Pourcain-sur-Besbre;2004-08-01;;46.476667;3.653333;7011;21649;249;5
3257002;SAINT-PRIX-SPC;SAINT-PRIX;SPC-223-SAINT-PRIX;2017-12-01;;46.229167;3.647167;7010;21374;292;5
3279001;TEILLET-ARGENTY-SPC;TEILLET-ARGENTY;SPC-222-Teillet-Argenty(Rochebut);2004-08-01;2011-08-25;46.241667;2.535833;6153;21380;365;5
4034004;LA BRILLANNE-SPC;LA BRILLANNE;SPC-222-La Brillane;2004-08-01;2013-12-10;43.934667;5.893667;8858;18879;350;5
4142001;OPPEDETTE-SPC;OPPEDETTE;SPC-222-Oppedette;2004-08-01;;43.918833;5.584500;8610;18851;505;5
4200001;SALIGNAC-SPC;SALIGNAC;SPC-223-Salignac;2012-03-01;;44.137167;5.977000;8914;19107;450;5
5093403;NEVACHE-BUFFERE;NEVACHE;Refuge Buffere;2005-01-01;2018-12-31;45.012833;6.570833;9337;20103;2060;5
5176001;L'ARCHIDIACRE-SPC;VALSERRES;SPC-223-L'Archidiacre;2012-03-01;;44.476167;6.111667;9004;19489;620;5
5181400;REFUGE ADELE PLANCHARD;VILLAR-D'ARENE;;2022-03-01;;44.980000;6.340167;9157;20057;3175;5
6163400;VAL CASTERINO_NEIGE;TENDE;;1989-12-14;;44.097500;7.505833;10140;19132;1554;5
7011006;ANTRAIGUES-SUR-VOLANE-SPC;VALLEES-D'ANTRAIGUES-ASPERJOC;SPC-223-Antraigues;2000-09-01;;44.725500;4.348500;7594;19714;468;5
7025002;BARNAS-SPC;BARNAS;SPC-223-Barnas;2000-08-31;;44.666167;4.160000;7446;19645;459;5
7030001;BEAUVENE-SPC;BEAUVENE;SPC-223-Beauvene;2016-03-01;;44.882500;4.525167;7729;19893;316;5
7031002;CHAULET-SPC;BERRIAS-ET-CASTELJAU;SPC-223-Chaulet;2016-03-01;;44.406667;4.216000;7498;19357;114;5
7032004;BERZEME-SPC;BERZEME;SPC-223-Berzeme;2000-08-31;;44.651000;4.568167;7771;19636;754;5
7037001;BOREE-SPC;BOREE;SPC-222-Boree;2000-08-31;;44.896167;4.238500;7502;19902;1149;5
7042002;BOURG-SAINT-ANDEOL-SPC;BOURG-SAINT-ANDEOL;SPC-222-Bourg St Andreol;2000-08-31;2011-02-28;44.371667;4.646667;7842;19328;70;5
7064004;LE CHEYLARD-SPC;LE CHEYLARD;SPC-223-Le Cheylard;2000-09-01;;44.912833;4.428000;7652;19924;446;5
7071001;COUCOURON-SPC;COUCOURON;SPC-223-COUCOURON;2017-12-01;;44.809167;3.968667;7291;19800;1283;5
7078001;DAVEZIEUX-SPC;DAVEZIEUX;SPC-222-Davezieux;2000-08-31;;45.252167;4.693000;7850;20307;432;5
7100002;GRAVIERES-SPC;GRAVIERES;SPC-223-Gravieres;2000-09-01;;44.425833;4.091167;7398;19376;207;5
7119002;LE-LAC-D'ISSARLES-SPC;LE LAC-D'ISSARLES;SPC-223-Lac d'Issarles;2004-08-01;;44.823333;4.066667;7368;19818;980;5
7129003;LAMASTRE-SPC;LAMASTRE;SPC-222-Lamastre;2000-09-01;;44.987167;4.578500;7768;20010;380;5
7130003;LANARCE-SPC;LANARCE;SPC-223-Lanarce;2004-08-01;;44.725333;4.007667;7324;19708;1177;5
7136003;LAVEYRUNE-SPC;LAVEYRUNE;Rogleton;2004-08-01;;44.613333;3.898667;7240;19582;983;5
7144002;LOUBARESSE-SPC;LOUBARESSE;SPC-223-Loubaresse;2000-09-01;;44.600000;4.049333;7360;19569;1198;5
7144400;LOUBARESSE_NEIGE;LOUBARESSE;Le Bourg;1946-03-01;;44.599833;4.049333;7360;19569;1220;5
7148001;MALBOSC-SPC;MALBOSC;SPC-222-Malbosc;2000-01-01;2013-12-10;44.319167;4.048333;7366;19257;482;5
7161006;MONTPEZAT-SOUS-BAUZON-SPC;MONTPEZAT-SOUS-BAUZON;SPC-223-Montpezat;2000-09-01;;44.711667;4.208833;7484;19696;589;5
7167001;LES OLLIERES-SUR-EYRIEUX-SPC;LES OLLIERES-SUR-EYRIEUX;SPC-223-Les Ollieres;2000-09-01;;44.811333;4.615667;7803;19816;200;5
7173002;PEREYRES-SPC;PEREYRES;SPC-223-Pereyres;2000-09-01;;44.775667;4.257667;7521;19768;851;5
7178001;PONT-DE-LABEAUME-SPC;PONT-DE-LABEAUME;SPC-223-Pont de Labeaume;2000-09-01;;44.666333;4.290833;7550;19648;320;5
7186006;PRIVAS-SPC;PRIVAS;SPC-223-Privas;2000-09-01;;44.737500;4.600167;7793;19733;292;5
7199001;ROSIERES-SPC;ROSIERES;SPC-223-Rosieres;2000-09-01;;44.481667;4.251333;7524;19442;163;5
7202003;SABLIERES-SPC;SABLIERES;SPC-223-Sablieres;2000-09-01;;44.533333;4.073333;7381;19496;490;5
7204007;SAINT-AGREVE-SPC;SAINT-AGREVE;SPC-222-St Agreve;2000-09-01;;45.012667;4.400833;7627;20035;1071;5
7230003;COL-DE-L ESCRINET-SPC;SAINT-ETIENNE-DE-BOULOGNE;SPC-223-Escrinet;2000-08-31;;44.715333;4.490500;7707;19706;720;5
7235005;SAINTE-EULALIE-SPC;SAINTE-EULALIE;SPC-223-Ste Eulalie;2004-08-01;;44.810667;4.188667;7465;19806;1238;5
7236004;SAINT-FELICIEN-SPC;SAINT-FELICIEN;SPC-223-St Felicien;2000-09-01;;45.083167;4.626000;7802;20118;540;5
7245001;SAINT-JEAN-DE-MUZOLS-SPC;SAINT-JEAN-DE-MUZOLS;SPC-222-St-Jean-de-Muzols;2000-09-01;;45.066833;4.781000;7925;20103;133;5
7268001;SAUZE-SPC;SAINT-MARTIN-D'ARDECHE;SPC-223-Sauze;2012-03-01;;44.313667;4.551667;7768;19261;100;5
7273002;SAINT-MAURICE-D'IBIE-SPC;SAINT-MAURICE-D'IBIE;SPC-222-St Maurice d'Ibie;2000-09-01;2023-11-23;44.498500;4.476167;7702;19465;240;5
7285003;SAINT-PIERRE-SUR-DOUX-SPC;SAINT-PIERRE-SUR-DOUX;SPC-223-St-Pierre-sur-Doux;2000-11-01;;45.121000;4.464333;7674;20156;943;5
7286005;SAINT-PIERREVILLE-SPC;SAINT-PIERREVILLE;SPC-223-St Pierreville;2000-09-01;;44.818333;4.488333;7702;19821;595;5
7315005;LA SOUCHE-SPC;LA SOUCHE;SPC-222-La Souche;2000-09-01;;44.629167;4.201667;7480;19605;541;5
7325001;UCEL-SPC;UCEL;SPC-223-Pont d'Ucel;2000-09-01;;44.626833;4.395500;7634;19606;219;5
7330005;VALLON-PONT-D'ARC-SPC;VALLON-PONT-D'ARC;SPC-223-Vallon-Pont-D'Arc;2000-09-01;;44.399333;4.384833;7632;19353;120;5
7338006;VERNOUX-EN-VIVARAIS-SPC;VERNOUX-EN-VIVARAIS;SPC-223-Vernoux-en-Vivarais;2000-09-01;;44.907500;4.650500;7827;19923;584;5
7348002;VOGUE-SPC;VOGUE;SPC-222-Vogue;2000-09-01;;44.542500;4.409833;7648;19512;167;5
7349001;LA VOULTE-SUR-RHONE-SPC;LA VOULTE-SUR-RHONE;SPC-223-La Voulte;2002-07-01;;44.795833;4.779167;7933;19802;102;5
8105007;CHARLEVILLE-MEZIERES-SPC;CHARLEVILLE-MEZIERES;SPC-222-Charleville-Mézières;2004-08-01;;49.760000;4.716667;7716;25318;152;5
8122002;CHOOZ-SPC;CHOOZ;SPC-223-Chooz;2004-08-01;;50.092500;4.806333;7769;25691;105;5
8247001;LANDRICHAMPS-SPC;LANDRICHAMPS;SPC-222-Landrichamps;2004-08-01;;50.084333;4.826500;7784;25682;141;5
8302004;MONTHERME-SPC;MONTHERME;SPC-222-Montherme;2004-08-01;;49.880167;4.731000;7723;25453;143;5
8409003;SEDAN-SPC;SEDAN;SPC-223-Sedan;2004-08-01;;49.700000;4.935000;7876;25257;155;5
9030010;BASSIES;AUZAT;Refuge;1992-06-01;;42.765500;1.413333;5242;17518;1655;5
9030015;LE FOURCAT;AUZAT;;2006-07-01;;42.665000;1.489333;5303;17405;2445;5
9032006;AX-LES-THERMES-SPC;AX-LES-THERMES;SPC-222-Ax-les-thermes;2004-08-01;;42.722167;1.834667;5587;17467;720;5
9042004;LA BASTIDE-DE-SEROU-SPC;LA BASTIDE-DE-SEROU;SPC-222-La-Bastide-de-Sérou;2004-08-01;;43.010333;1.427833;5257;17790;408;5
9047003;BELESTA-SPC;BELESTA;SPC-222Belesta;2004-08-01;;42.905167;1.936833;5672;17670;500;5
9062002;ESTAGNOUS;BORDES-UCHENTEIN;Refuge;1998-06-01;;42.797333;1.072667;4963;17557;2240;5
9111001;ENGOMER-SPC;ENGOMER;SPC-222-Engomer;2005-01-01;;42.948833;1.055833;4952;17726;455;5
9124002;LE FOSSAT-SPC;LE FOSSAT;SPC-222-Le Fossat;2004-08-01;2021-11-16;43.175000;1.409000;5244;17974;241;5
9160001;LAVELANET-SPC;LAVELANET;SPC-222-Lavelanet;2005-01-01;;42.940833;1.851000;5602;17710;522;5
9167001;LEZAT-SPC;LEZAT-SUR-LEZE;SPC-222-Lézat-sur-Léze;2011-01-01;;43.280333;1.353000;5200;18092;210;5
9181004;LE MAS-D'AZIL-SPC;LE MAS-D'AZIL;SPC-222-Le Mas D'Azil;2004-08-01;;43.083000;1.361000;5204;17872;290;5
9181005;MAS-D'AZIL-COLLEGE-SPC;LE MAS-D'AZIL;SPC-222-Mas-d'Azil;2010-01-01;2019-03-26;43.079667;1.366167;5208;17868;286;5
9182002;MASSAT-SPC;MASSAT;SPC-222-Massat;2004-08-01;;42.892667;1.348667;5191;17660;650;5
9185003;MAZERES-SPC;MAZERES;SPC-222-Mazères;2004-08-01;;43.253500;1.680500;5466;18059;240;5
9194002;MIREPOIX-SPC;MIREPOIX;SPC-222-Mirepoix;2004-08-01;;43.093167;1.876667;5624;17879;302;5
9220003;EN BEYS;ORLU;Refuge;1999-06-01;;42.626500;1.944167;5677;17360;1970;5
9224001;PAILHES-SPC;PAILHES;SPC-222-Pailhes;2008-01-01;;43.102167;1.443000;5271;17892;287;5
9261002;SAINT-GIRONS-SPC;SAINT-GIRONS;SPC-222-St-Girons;2004-08-01;;42.990833;1.141667;5023;17772;392;5
9282002;SAVERDUN-SPC;SAVERDUN;SPC-222-Saverdun;2004-08-01;;43.231667;1.577333;5382;18035;234;5
9299002;SOUEIX-ROGALLE-SPC;SOUEIX-ROGALLE;SPC-222-Soueix-Rogalle;2004-08-01;;42.888167;1.212167;5079;17657;486;5
9334006;VICDESSOS-SPC;VAL-DE-SOS;SPC-222-Vicdessos;2005-01-01;;42.768167;1.500167;5313;17520;1062;5
11038003;BESSEDE-DE-SAULT-SPC;BESSEDE-DE-SAULT;SPC-222-Gesse;2004-08-01;;42.776667;2.153333;5849;17526;542;5
11041002;BIZE-MINERVOIS-SPC;BIZE-MINERVOIS;SPC-222-Bize-Minervois;2004-08-01;2022-02-10;43.317500;2.870833;6434;18129;60;5
11044003;BOUISSE-SPC;BOUISSE;SPC-222-Bouisse;2004-08-01;;42.986000;2.452167;6094;17759;640;5
11069005;CARCASSONNE-SPC;CARCASSONNE;SPC-222-Carcassonne DDE (atelier);2004-08-01;;43.238500;2.372333;6029;18040;103;5
11073001;CASSAIGNES-SPC;CASSAIGNES;SPC-222-Cassaignes;2004-08-01;;42.940833;2.307500;5976;17709;252;5
11075002;CASTANS-SPC;CASTANS;SPC-222-Castans;2004-08-01;;43.406667;2.486667;6121;18227;650;5
11103003;COUIZA-SPC;COUIZA;SPC-222-Couiza Pont Vieux;2004-08-01;2012-12-08;42.943333;2.253333;5931;17712;220;5
11110002;COUSTOUGE-SPC;COUSTOUGE;SPC-222-Coustouge;2004-08-01;;43.056333;2.743500;6332;17838;260;5
11116001;CUXAC-SPC;CUXAC-D'AUDE;SPC-223-Cuxac;2008-01-01;2023-09-05;43.240000;2.999167;6539;18044;48;5
11170001;GRUISSAN-INRAE;GRUISSAN;PECH ROUGE;1964-01-01;;43.143167;3.135500;6651;17937;1;5
11185004;LAGRASSE-SPC;LAGRASSE;SPC-222-Lagrasse Subdi;2004-08-01;;43.091500;2.621667;6232;17877;130;5
11194001;LASTOURS-SPC;LASTOURS;SPC-222-Lastours;2004-08-01;2019-07-10;43.332500;2.381167;6036;18145;163;5
11194002;LASTOURS-BELVEDERE-SPC;LASTOURS;;2019-07-11;;43.333333;2.372333;6029;18146;314;5
11206004;LIMOUX-SPC;LIMOUX;SPC-223-Pont de Fer;2004-08-01;2023-03-24;43.056333;2.216667;5902;17837;168;5
11210001;LUC-SUR-ORBIEU-SPC;LUC-SUR-ORBIEU;SPC-222-Luc sur Orbieu;2004-08-01;;43.181833;2.780667;6361;17978;29;5
11220002;MARSEILLETTE-SPC;MARSEILLETTE;SPC-222-Marseillette;2007-08-01;;43.200000;2.540000;6165;17997;90;5
11224001;MASSAC-SPC;MASSAC;SPC-222-Massac;2004-08-01;;42.919333;2.572500;6193;17685;435;5
11233001;MIREPEISSET-SPC;MIREPEISSET;SPC-222-Mirepeisset;2007-08-01;;43.283667;2.900000;6458;18092;39;5
11243002;NAUROUZE-SPC;MONTFERRAND;SPC-223-Naurouze;2004-08-01;;43.353667;1.820333;5580;18170;256;5
11258002;MOUSSAN-SPC;MOUSSAN;SPC-222-Moussan Ecluse;2004-08-01;;43.244833;2.960500;6507;18049;45;5
11270001;PADERN-SPC;PADERN;SPC-222-Padern;2004-08-01;;42.864667;2.677167;6278;17625;148;5
11296002;POUZOLS-MINERVOIS-SPC;POUZOLS-MINERVOIS;SPC-222-Pouzols-Minervois;2004-08-01;;43.290667;2.824167;6396;18099;80;5
11301002;PUICHERIC-SPC;PUICHERIC;SPC-222-Puichéric;2004-08-01;;43.221833;2.626500;6235;18022;63;5
11302004;PUILAURENS-SPC;PUILAURENS;SPC-222-Lapradelle;2004-08-01;;42.813333;2.323333;5989;17567;400;5
11304002;QUILLAN-SPC;QUILLAN;SPC-222-Quillan;2004-08-01;;42.877833;2.185000;5875;17639;282;5
11332002;SAINT-ANDRE-DE-ROQUELONGUE-SPC;SAINT-ANDRE-DE-ROQUELONGUE;SPC-222-St André de Roquelongue;2004-08-01;;43.111667;2.835000;6406;17900;80;5
11344002;SAINT-HILAIRE-SPC;SAINT-HILAIRE;SPC-222-Saint Hilaire;2004-08-01;2018-11-01;43.109833;2.315333;5982;17897;170;5
11367002;SAISSAC-SPC;SAISSAC;SPC-222-Saissac le Lampy;2004-08-01;;43.393333;2.165000;5860;18213;630;5
11381003;SOUGRAIGNE-SPC;SOUGRAIGNE;SPC-222-Sougraigne;2004-08-01;;42.902500;2.356833;6016;17666;400;5
11397002;TREBES-SPC;TREBES;SPC-222-Trèbes;2004-08-01;;43.209500;2.440500;6084;18008;89;5
11401005;TUCHAN-SPC;TUCHAN;SPC-222-Tuchan;2004-08-01;;42.928333;2.711667;6306;17696;160;5
11405001;VENTENAC-EN-MINERVOIS-SPC;VENTENAC-EN-MINERVOIS;SPC-223-Ventenac en Minervois;2004-08-01;;43.240000;2.855833;6422;18043;48;5
11427002;VILLELONGUE-D'AUDE-SPC;VILLELONGUE-D'AUDE;SPC-222-Villelongue Aude;2004-08-01;;43.056667;2.091667;5800;17838;320;5
11431001;VILLENEUVE-LES-CORBIERES-SPC;VILLENEUVE-LES-CORBIERES;SPC-223-Villeneuve-les-Corbières;1975-06-24;2022-10-04;42.978333;2.773167;6356;17751;241;5
12038001;BROUSSE-LE-CHATEAU-SPC;BROUSSE-LE-CHATEAU;SPC-222-Brousse-le-Chateau;2004-08-01;;43.998167;2.622167;6229;18886;260;5
12044005;CAMARES-SPC;CAMARES;SPC-222-Camares;2004-08-01;;43.820667;2.880500;6438;18689;384;5
12094003;ENTRAYGUES-SUR-TRUYERE-SPC;ENTRAYGUES-SUR-TRUYERE;SPC-222-Entraygues;2004-08-01;2022-04-05;44.638833;2.560333;6177;19598;253;5
12096002;ESPALION-SPC;ESPALION;SPC-222-Espalion;2004-08-01;2022-04-05;44.523167;2.771167;6345;19470;342;5
12145004;MILLAU-SPC;MILLAU;SPC-222-Millau;2004-08-01;;44.091667;3.075833;6592;18992;364;5
12168003;NANT-SPC;NANT;SPC-222-Nant;2004-08-01;;44.023000;3.304500;6776;18918;492;5
12172001;BOULDOIRE-SPC;LE NAYRAC;SPC-222-La Bouldoire;2004-08-01;;44.606667;2.712167;6298;19563;700;5
12176002;ONET-LE-CHATEAU-SPC;ONET-LE-CHATEAU;SPC-222-Onet-le-Chateau-Rodez;2004-08-01;;44.362500;2.621667;6227;19291;546;5
12177001;PONT DE MANSON-SPC;PALMAS D'AVEYRON;SPC-223-Palmas;2012-03-01;;44.399000;2.846167;6406;19332;583;5
12208005;VABRES-L'ABBAYE-SPC;VABRES-L'ABBAYE;SPC-222-St Affrique;2004-08-01;;43.955833;2.830833;6397;18839;328;5
12214006;ST-CHELY-D'AUBRAC-SPC;SAINT-CHELY-D'AUBRAC;SPC-222-St-Chely-D'Aubrac;2004-08-01;2007-02-08;44.588333;2.917500;6461;19543;825;5
12218002;ST-CYPRIEN-SUR-DOURDOU-SPC;CONQUES-EN-ROUERGUE;SPC-222-St-Cyprien-sur-Dourdou;2004-08-01;;44.549167;2.409000;6057;19498;264;5
12222002;ST-FELIX-DE-SORGUES-SPC;SAINT-FELIX-DE-SORGUES;SPC-222-St-Félix-de-Sorgues;2004-08-01;;43.879333;2.989667;6525;18755;439;5
12225002;SAINT-GEORGES-DE-LUZENCON-SPC;SAINT-GEORGES-DE-LUZENCON;SPC-223-St-Georges-de-Luzencon;2012-03-01;;44.063667;2.983833;6519;18960;355;5
12232001;ST JEAN ST PAUL-INRAE;SAINT-JEAN-ET-SAINT-PAUL;LA FAGE;1988-11-01;;43.923333;3.003333;6536;18804;700;5
12235001;STJUST-SUR-VIAUR-SPC;SAINT-JUST-SUR-VIAUR;SPC-222-St-Just-sur-Viaur;2004-08-01;;44.123333;2.365167;6022;19024;327;5
12237001;ST-LAURENT-D'OLT-SPC;SAINT-LAURENT-D'OLT;SPC-222-St-Laurent-D'Olt;2004-08-01;;44.448333;3.112500;6618;19389;547;5
12248002;ST-SERNIN-SUR-RANCE-SPC;SAINT-SERNIN-SUR-RANCE;SPC-222-St-Sernin-sur-Rance;2004-08-01;;43.885833;2.602500;6213;18761;336;5
12300005;VILLEFRANCHE-DE-ROUERGUE-SPC;VILLEFRANCHE-DE-ROUERGUE;SPC-222-Villefranche-de-Rouergue;2004-08-01;;44.350333;2.042333;5765;19277;272;5
13005005;AUBAGNE-SPC;AUBAGNE;SPC-222-Aubagne;1994-01-01;2005-12-31;43.293333;5.560000;8619;18155;110;5
13055028;MARSEILLE-SPC;MARSEILLE;SPC-222-Marseille;1996-12-01;2005-12-30;43.255000;5.376667;8472;18106;7;5
13073003;PEYPIN-SPC;PEYPIN;SPC-222-Peypin;1994-06-01;2005-12-31;43.395000;5.578333;8629;18268;300;5
13075001;PLAN-DE-CUQUES-SPC;PLAN-DE-CUQUES;SPC-222-Plan de cuques;1995-01-01;2005-12-30;43.398333;5.460000;8533;18268;217;5
13085003;ROQUEFORT-LA-BEDOULE-SPC;ROQUEFORT-LA-BEDOULE;SPC-222-Roquefort;1996-12-01;2007-06-05;43.248333;5.595000;8650;18106;280;5
13086005;ROQUEVAIRE-SPC;ROQUEVAIRE;SPC-222-Roquevaire;1994-01-01;2005-12-30;43.351667;5.605000;8653;18221;160;5
13099004;CADARACHE-SPC;SAINT-PAUL-LES-DURANCE;SPC-222-Cadarache;2016-06-21;2021-07-05;43.716667;5.744667;8749;18632;255;5
13103004;SALON-DE-PROVENCE-INRAE;SALON-DE-PROVENCE;Le Merle;2010-01-01;;43.642500;4.993667;8146;18526;62;5
13108005;TARASCON-SPC;TARASCON;SPC-223-Tarascon;2012-03-01;;43.786500;4.653333;7866;18677;14;5
15001004;ALLANCHE-SPC;ALLANCHE;SPC-222-Allanches;2004-08-01;;45.232167;2.937667;6472;20259;983;5
15094002;LAROQUEBROU-SPC;LAROQUEBROU;SPC-223-Laroquebrou(Nepes);2004-08-01;;44.958333;2.201667;5893;19953;466;5
15104001;LEYNHAC-SPC;LEYNHAC;SPC-223-Leynhac;2004-08-01;;44.729333;2.279500;5954;19698;449;5
15138004;MURAT-SPC;MURAT;SPC-223-Murat;2006-09-01;;45.106500;2.867000;6417;20119;908;5
15251001;VEDRINES-SAINT-LOUP-SPC;VEDRINES-SAINT-LOUP;SPC-222-Védrines-St-Loup;2004-08-01;;45.067833;3.276833;6740;20079;1016;5
16015007;ANGOULEME-SPC;ANGOULEME;SPC-222-Angoulème;2004-08-01;2019-07-29;45.657333;0.141167;4288;20754;77;5
16085002;CHASSENEUIL-SUR-BONNIEURE-SPC;CHASSENEUIL-SUR-BONNIEURE;SPC-222-Chasseneuil-sur-Bonnieure;2004-08-01;2009-11-19;45.827333;0.454167;4537;20936;116;5
16167002;JARNAC-SPC;JARNAC;SPC-222-Jarnac;2004-08-01;2007-11-27;45.677500;-0.173333;4044;20784;21;5
16180001;LAPRADE-SPC;LAPRADE;SPC-222-(Aubeterre);2004-08-01;2020-09-29;45.269167;0.175000;4303;20322;51;5
16206001;MANSLE-SPC;MANSLE;SPC-222-Mansle;2004-08-01;2018-02-28;45.877333;0.179833;4325;20997;67;5
16211003;MARTHON-SPC;MARTHON;SPC-222-Marthon;2004-08-01;2013-11-26;45.614167;0.443333;4523;20700;110;5
16215001;MEDILLAC-SPC;MEDILLAC;SPC-223-MEDILLAC;2013-01-01;;45.220833;0.027500;4186;20271;33;5
16223003;MONTBRON-SPC;MONTBRON;SPC-222-Montbron;2004-08-01;2019-07-29;45.669000;0.493667;4563;20760;139;5
16316001;SAINT-FORT-SUR-LE-NE-SPC;SAINT-FORT-SUR-LE-NE;SPC-222-St-Fort-sur-le-Né;2004-08-01;2010-04-22;45.574500;-0.308000;3935;20673;25;5
16317001;SAINT-FRAIGNE-SPC;SAINT-FRAIGNE;SPC-222-St-Fraigne;2004-08-01;2009-08-31;45.953000;-0.006667;4183;21086;76;5
17100001;CHERAC-SPC;CHERAC;SPC-222-Chérac (Chez Landart);2004-08-01;2009-11-19;45.686667;-0.426000;3848;20800;61;5
17119001;CORME-ECLUSE-SPC;CORME-ECLUSE;SPC-222-Corme-Ecluse;2004-08-01;2019-07-29;45.645833;-0.851667;3514;20768;15;5
17283002;PONS-SPC;PONS;SPC-222-Pons (Pont du Milieu);1997-01-01;2011-06-24;45.575000;-0.549167;3747;20680;40;5
17310001;SAINT-ANDRE-DE-LIDON-SPC;SAINT-ANDRE-DE-LIDON;SPC-222-St-André-de-Lidon;2004-08-01;2019-07-29;45.603167;-0.748333;3593;20717;21;5
17347002;SAINT-JEAN-D'ANGELY-SPC;SAINT-JEAN-D'ANGELY;SPC-222-St-Jean-D'Angely (Pont Saint-Jacques);1997-01-01;2019-07-29;45.936667;-0.527000;3779;21081;25;5
17397001;SAINT-SAVINIEN-SPC;SAINT-SAVINIEN;SPC-222-St-Savinien;2004-08-01;2014-04-20;45.879500;-0.681333;3657;21022;6;5
17415005;SAINTES-SPC;SAINTES;SPC-222-Saintes (Pont Palissy);1997-01-01;2014-04-20;45.747000;-0.629333;3692;20873;19;5
17421002;SAUJON-SPC;SAUJON;SPC-222-Saujon (Pont rue Carnot);1997-01-01;2012-06-15;45.674167;-0.925000;3459;20801;5;5
18033006;BOURGES-SPC;BOURGES;SPC-223-BOURGES;2004-08-01;2011-03-07;47.087500;2.384167;6036;22320;146;5
18059002;LE-CHATELET-EN-BERRY-SPC;LE CHATELET;SPC-223-LE CHATELET;2004-08-01;;46.643167;2.279167;5956;21826;205;5
18183003;LE-PONDY-SPC;LE PONDY;SPC-223-LE PONDY;2004-08-01;;46.805167;2.650833;6239;22006;171;5
18197005;SAINT-AMAND-MONTROND-SPC;SAINT-AMAND-MONTROND;SPC-223-ST-AMAND-MONTROND;2004-08-01;2011-08-25;46.725000;2.491667;6118;21917;159;5
18231002;SAINT-PIERRE-LES-ETIEUX-SPC;SAINT-PIERRE-LES-ETIEUX;SPC-223-Saint-Pierre-Les-Etieux;2013-08-01;;46.726000;2.624167;6219;21918;171;5
18247001;SAVIGNY-EN-SEPTAINE-SPC;SAVIGNY-EN-SEPTAINE;SPC-223-SAVIGNY-EN-SEPTAINE;2004-08-01;2011-04-13;47.048667;2.566000;6174;22277;148;5
18269004;VAILLY-SUR-SAULDRE-SPC;VAILLY-SUR-SAULDRE;SPC-223-VAILLY-SUR-SAULDRE;2004-08-01;;47.457167;2.647333;6234;22731;205;5
18279006;VIERZON-SPC;VIERZON;SPC-223-VIERZON;2004-08-01;;47.216500;2.065500;5794;22463;102;5
19007001;ALTILLAC-SPC;ALTILLAC;SPC-222-Altillac;2004-08-01;;44.977000;1.844167;5611;19975;147;5
19010004;ARGENTAT-SPC;ARGENTAT-SUR-DORDOGNE;SPC-222-Argentat;2004-08-01;2020-12-04;45.092833;1.942000;5689;20103;190;5
19010005;ARGENTAT-BASTEYROUX-SPC;ARGENTAT-SUR-DORDOGNE;SPC-222-Argentat(Basteyroux);2004-08-01;;45.083333;1.946500;5692;20093;190;5
19015003;AYEN-SPC;AYEN;SPC-222-Ayen;2004-08-01;;45.247667;1.328000;5208;20280;305;5
19023003;BEYNAT-SPC;BEYNAT;SPC-223-Beynat;2006-09-01;;45.122500;1.727500;5520;20137;394;5
19031010;BRIVE-LA-GAILLARDE-SPC;BRIVE-LA-GAILLARDE;SPC-222-Brive-la-Gaillarde;2004-08-01;2020-09-29;45.163833;1.540667;5374;20185;116;5
19062003;CORREZE-SPC;CORREZE;SPC-222-Corrèze;2004-08-01;;45.371500;1.882000;5643;20413;472;5
19101001;LAGUENNE-SPC;LAGUENNE-SUR-AVALOUZE;SPC-222-Laguenne;2004-08-01;;45.250500;1.765500;5551;20279;220;5
19107002;LARCHE-SPC;SAINT-PANTALEON-DE-LARCHE;SPC-222-Larche;2004-08-01;;45.123333;1.416167;5275;20141;105;5
19112001;LESTARDS-SPC;LESTARDS;SPC-222-Montceau la Virolle;2004-08-01;2020-09-29;45.576000;1.839500;5611;20641;522;5
19121004;LUBERSAC-SPC;LUBERSAC;SPC-222-Lubersac;2004-08-01;;45.441667;1.360833;5236;20495;287;5
19149001;NEUVILLE-SIRIEIX-SPC;NEUVILLE;SPC-223-Neuville-Sirieix;1985-01-01;2020-08-19;45.114667;1.813000;5587;20128;592;5
19153001;OBJAT-SPC;VOUTEZAC;SPC-222-OBJAT;2017-03-01;2020-12-04;45.305833;1.415667;5277;20343;161;5
19165001;PEYRISSAC-SPC;LE LONZAC;SPC-222-Peyrissac;2004-08-01;;45.499833;1.705500;5506;20557;374;5
19249003;SAINT-YRIEIX-LE-DEJALAT-SPC;SAINT-YRIEIX-LE-DEJALAT;SPC-222-St-Yrieix-le-Déjalat;2004-08-01;;45.467667;1.965667;5709;20520;646;5
19255004;SEILHAC-SPC;SEILHAC;SPC-222-Seilhac;2004-08-01;;45.365000;1.716667;5514;20407;490;5
19272005;TULLE-SPC;TULLE;SPC-222-Tulle;2004-08-01;2020-12-04;45.275000;1.780000;5563;20307;223;5
19276007;UZERCHE-SPC;UZERCHE;SPC-222-Uzerche;2004-08-01;;45.427833;1.565833;5396;20478;340;5
19278001;VARETZ-SPC;SAINT-VIANCE;SPC-222-Varetz(Pont de Burg);2004-08-01;;45.218000;1.438000;5294;20246;100;5
19288003;VOUTEZAC-OBJAT-SPC;VOUTEZAC;SPC-222-Le  Saillant;2004-08-01;;45.285167;1.464000;5315;20320;126;5
20303001;SAN GIULIANO-INRAE;SAN-GIULIANO;S R A. INRA;1959-01-01;;42.286667;9.521667;11935;17252;47;5
21106001;BRETENIERES_INRAE;BRETENIERE;DOM.-D EPOISSES;1953-01-01;;47.239167;5.102333;8093;22525;211;5
21349002;LIERNAIS-SPC;LIERNAIS;SPC-223-Liernais;2004-08-01;;47.199500;4.272000;7466;22462;489;5
22001002;ALLINEUC-SPC;ALLINEUC;SPC-223-ALLINEUC(Barrage de Bosméléac);2006-09-01;;48.300000;-2.901667;2115;23797;185;5
22122002;LAURENAN-SPC;LAURENAN;SPC-222-La Lande aux chiens;2011-10-01;2019-06-30;48.187667;-2.524833;2386;23655;139;5
22305001;SAINT-JOUAN-DE-L'ISLE-SPC;SAINT-JOUAN-DE-L'ISLE;SPC-222-ST-JOUAN-DE-L'ISLE;2017-01-15;2019-07-31;48.254000;-2.168000;2656;23712;60;5
22344001;TREBRIVAN-SPC;TREBRIVAN;SPC-222-TREBRIVAN(Le Nezert);2004-08-01;;48.320833;-3.510000;1666;23852;179;5
23045003;CHAMBON-SUR-VOUEIZE-SPC;CHAMBON-SUR-VOUEIZE;SPC-222-Chambon-sur-Voueize;2004-08-01;;46.186333;2.433833;6075;21318;339;5
24013001;ATUR-SPC;BOULAZAC ISLE MANOIRE;SPC-223-Atur;2005-01-01;2016-03-31;45.139000;0.774500;4771;20166;242;5
24037011;BERGERAC-SPC;BERGERAC;SPC-222-Bergerac;2004-08-01;2020-09-29;44.848833;0.483500;4534;19848;28;5
24064004;BRANTOME-SPC;BRANTOME EN PERIGORD;SPC-222-Brantome;2004-08-01;;45.362500;0.648833;4677;20416;108;5
24091002;CENAC-ET-ST-JULIEN-SPC;CENAC-ET-SAINT-JULIEN;SPC-222-Cénac-et-st-Julien;2004-08-01;;44.805000;1.204500;5103;19789;77;5
24098001;CHAMPCEVINEL-SPC;CHAMPCEVINEL;SPC-223-CHAMPCEVINEL;1968-01-01;2016-03-31;45.202500;0.735000;4741;20237;182;5
24120001;CHERVEIX CUBAS-SPC;CHERVEIX-CUBAS;SPC-222-Cherveix-Cubas;1987-01-01;;45.297667;1.127500;5051;20337;148;5
24134001;CORGNAC-SUR-L'ISLE-SPC;CORGNAC-SUR-L'ISLE;SPC-222-Corgnac-sur-l'isle;1987-01-01;;45.375667;0.949167;4913;20426;141;5
24161001;EGLISE-NEUVE-D'ISSAC-SPC;EGLISE-NEUVE-D'ISSAC;SPC-223-Eglise-Neuve-D'Issac;1992-01-01;;44.971667;0.413333;4482;19986;161;5
24164003;EXCIDEUIL-SPC;EXCIDEUIL;SPC-222-Excideuil;2004-08-01;2020-09-29;45.336667;1.061667;5000;20382;159;5
24204001;GREZES-SPC;LES COTEAUX PERIGOURDINS;SPC-223-Grezes;1968-01-01;;45.102333;1.376500;5244;20118;352;5
24218003;JUMILHAC-SPC;JUMILHAC-LE-GRAND;SPC-223-JUMILHAC;2013-01-01;;45.504167;1.062333;5004;20568;224;5
24291004;MONTIGNAC-SPC;MONTIGNAC-LASCAUX;SPC-222-Montignac;2004-08-01;;45.065333;1.161167;5073;20079;99;5
24299003;MUSSIDAN-SPC;SAINT-FRONT-DE-PRADOUX;SPC-222-Mussidan;2004-08-01;2020-09-29;45.038333;0.370833;4450;20061;56;5
24322007;PERIGUEUX-SPC;PERIGUEUX;SPC-222-Périgueux;2004-08-01;;45.185000;0.701333;4714;20218;101;5
24352005;RIBERAC-SPC;VILLETOUREIX;SPC-222-Riberac;2005-01-01;;45.256667;0.342500;4434;20304;75;5
24425001;SAINT-JEAN-DE-COLE-1-SPC;SAINT-JEAN-DE-COLE;SPC-222-St-Jean-de-Cole;1987-06-01;;45.421667;0.836000;4825;20479;150;5
24453002;SAINT-MARTIN-SPC;SAINT-MARTIN-DE-FRESSENGEAS;SPC-223-ST-Martin-de-Fressengeas;1985-01-01;;45.451333;0.844667;4832;20512;290;5
24479002;SAINT-PARDOUX-LA-RIVIERE-SPC;SAINT-PARDOUX-LA-RIVIERE;SPC-222-St-Pardoux-la-Rivière;2004-08-01;2020-09-29;45.492500;0.748333;4758;20559;144;5
24519002;SARLANDE-SPC;SARLANDE;SPC-223-SARLANDE;2013-01-01;;45.432667;1.123833;5050;20488;267;5
25219400;EPENOY-NIVO;EPENOY;CHATEAU D'EAU;2009-01-01;;47.126833;6.366500;9056;22442;750;5
26063003;BUIS-LES-BARONNIES-SPC;BUIS-LES-BARONNIES;SPC-222-Buis-Les-Baronnies;2007-08-01;;44.253167;5.255833;8333;19212;367;5
26264003;REMUZAT-SPC;REMUZAT;SPC-222-Rémuzat;2004-08-01;;44.411667;5.353333;8404;19391;460;5
26348002;TAULIGNAN-SPC;TAULIGNAN;SPC-223-Taulignan;2004-08-01;2019-02-01;44.444833;5.012000;8130;19418;290;5
26376001;VILLEPERDRIX-SPC;VILLEPERDRIX;SPC-222-Villeperdrix;2015-07-20;;44.437833;5.315000;8372;19419;600;5
28061002;BROU-SPC;BROU;SPC-223-Brou;2006-09-01;2019-11-08;48.215333;1.161667;5126;23580;155;5
28236001;MARGON-BARRAGE-SPC;ARCISSES;SPC-223-Barrage;2016-02-01;2021-09-16;48.349167;0.844667;4893;23733;106;5
29013001;BOTMEUR-SPC;BOTMEUR;SPC-222-(Botmeur);2004-08-01;2016-11-15;48.385333;-3.914333;1373;23947;267;5
29018003;BRENNILIS-SPC;BRENNILIS;SPC-222-Brennilis;2016-12-15;;48.353333;-3.871500;1402;23909;220;5
29027002;CHATEAUNEUF-DU-FAOU-SPC;CHATEAUNEUF-DU-FAOU;SPC-222-(Pont-Pol-Ty-Glas);2004-08-01;2019-08-31;48.165167;-3.860833;1393;23699;102;5
29049002;ELLIANT-SPC;ELLIANT;SPC-222-ELLIANT(Kerryannick);2004-08-01;;47.995000;-3.876833;1366;23512;112;5
29051001;ERGUE-GABERIC-SPC;ERGUE-GABERIC;SPC-222-ERGUE-GABERIC;2004-08-01;2019-07-31;48.035833;-3.977500;1295;23563;75;5
29066001;GUENGAT-SPC;GUENGAT;SPC-222-GUENGAT(Ty-Planche);2004-08-01;2019-08-31;48.027500;-4.146667;1169;23564;110;5
29106001;LANDREVARZEC-SPC;LANDREVARZEC;SPC-222-LANDREVARZEC(Kervalennou);2004-08-01;;48.086667;-4.073833;1228;23625;99;5
29125001;LEUHAN-SPC;LEUHAN;SPC-223-LEUHAN(Pont-Orven);2006-09-01;2008-06-26;48.110000;-3.815000;1422;23636;172;5
29163004;PLEYBER-CHRIST-SPC;PLEYBER-CHRIST;SPC-223-PLEYBER-CHRIST(Gendarmerie);2004-08-01;2019-07-31;48.504667;-3.873000;1414;24077;130;5
29177001;PLOUARZEL-SPC;PLOUARZEL;SPC-222-PLOUARZEL;2017-01-15;2019-01-31;48.455167;-4.680333;814;24072;20;5
29191003;PLOUGONVEN-SPC;PLOUGONVEN;SPC-222-PLOUGONVEN(Toulivinen);2004-08-01;2019-07-31;48.494167;-3.686667;1551;24054;169;5
29202002;PLOUNEOUR-MENEZ-SPC;PLOUNEOUR-MENEZ;SPC-222-PLOUNEOUR-MENEZ(Le Plessis);2004-08-01;2019-08-31;48.461667;-3.817500;1451;24026;250;5
29250001;SAINT-HERNIN-SPC;SAINT-HERNIN;SPC-222-St-HERNIN(Bellevue);2004-08-01;;48.188333;-3.605667;1585;23711;127;5
29274001;SCAER-SPC;SCAER;SPC-222-SCAER(Kervelennec);2004-08-01;2019-08-31;48.003833;-3.701000;1498;23511;181;5
29275003;SCRIGNAC-SPC;SCRIGNAC;SPC-222-SCRIGNAC(Poulpry);2004-08-01;2019-07-31;48.451667;-3.651667;1573;24005;240;5
30003002;AIGUES-MORTES-SPC;AIGUES-MORTES;SPC-223-Portes;2002-08-01;2015-02-25;43.584167;4.150833;7467;18442;1;5
30007007;ALES-SPC;ALES;SPC-222-Alès;2000-01-01;;44.120167;4.079167;7396;19036;140;5
30010003;ANDUZE-SPC;ANDUZE;SPC-222-Anduze;2000-01-01;;44.061167;3.984500;7321;18969;132;5
30028004;BAGNOLS-SUR-CEZE-SPC;BAGNOLS-SUR-CEZE;SPC-222-Bagnols sur Cèze;2000-01-01;;44.169167;4.619833;7827;19102;50;5
30036001;BERNIS-SPC;BERNIS;SPC-222-Bernis;2000-08-31;;43.762500;4.305833;7587;18643;16;5
30037002;BESSEGES-SPC;BESSEGES;SPC-223-BESSEGES;2006-01-01;;44.295833;4.093500;7403;19232;178;5
30040002;BLANDAS-SPC;BLANDAS;SPC-222-Blandas;2004-08-01;;43.916667;3.515000;6947;18802;655;5
30046001;BOUCOIRAN-ET-NOZIERES-SPC;BOUCOIRAN-ET-NOZIERES;SPC-222-Boucoiran-et-Nozières;2000-09-01;;44.015500;4.155167;7459;18921;91;5
30050001;BRAGASSARGUES-SPC;BRAGASSARGUES;SPC-222-Bragassargues;2000-01-01;;43.925833;4.025000;7357;18819;106;5
30056001;LA BRUGUIERE-SPC;LA BRUGUIERE;SPC-223-La Bruguière;2002-08-01;;44.111833;4.412833;7663;19034;285;5
30059002;LE CAILAR-SPC;LE CAILAR;SPC-222-Le Cailar;2000-09-01;;43.687000;4.225500;7524;18557;7;5
30060001;CAISSARGUES-SPC;CAISSARGUES;SPC-222-Caissargues;2000-08-31;;43.800000;4.380000;7646;18686;22;5
30093004;CONQUEYRAC-1-SPC;CONQUEYRAC;SPC-222-Conqueyrac;2000-01-01;;43.951500;3.929333;7279;18846;132;5
30093005;CONQUEYRAC-2-SPC;CONQUEYRAC;SPC-222-Ceyrac;2000-01-01;;43.916500;3.910000;7265;18807;128;5
30105002;LE MAZET-SPC;DOURBIES;SPC-223-Le Mazet;2004-08-01;;44.070000;3.466167;6905;18972;883;5
30117002;FOURQUES-INRAE;FOURQUES;MAS-D ADRIEN;1972-01-01;;43.706667;4.558333;7792;18586;3;5
30128003;GENERAC-SPC;GENERAC;SPC-222-Générac;2000-09-01;;43.740333;4.370000;7640;18620;80;5
30153004;MALONS-SPC;MALONS-ET-ELZE;SPC-223-Malons;2012-03-01;;44.427500;3.977500;7307;19376;990;5
30156001;MARGUERITTES-SPC;MARGUERITTES;SPC-222-Marguerittes;2000-09-01;;43.873000;4.430667;7684;18768;41;5
30168001;MIALET-SPC;MIALET;SPC-222-Mialet;2000-09-01;;44.125833;3.909500;7260;19040;140;5
30175002;MONTCLUS-SPC;MONTCLUS;SPC-222-Monclus;2000-09-01;;44.265000;4.430667;7673;19204;100;5
30189015;NIMES-SPC;NIMES;SPC-222-Nîmes;2001-01-01;;43.826667;4.335000;7609;18715;50;5
30202004;PONT-SAINT-ESPRIT-SPC;PONT-SAINT-ESPRIT;SPC-222-Pont-St-Esprit;2007-08-01;;44.260333;4.649000;7847;19204;43;5
30210004;QUISSAC-SPC;QUISSAC;SPC-223-Quissac;2002-08-01;;43.907000;4.000333;7337;18798;86;5
30212003;REMOULINS-SPC;REMOULINS;SPC-222-Remoulins;2000-09-01;;43.938000;4.557833;7785;18844;22;5
30219001;MADIERE-SPC;ROGUES;Madière;2020-07-01;;43.854167;3.564000;6988;18733;238;5
30228001;SAINTE-ANASTASIE-SPC;SAINTE-ANASTASIE;SPC-223-Russan;2004-01-01;;43.931167;4.320167;7594;18831;78;5
30239002;SAINTE-CECILE-D'ANDORGE-SPC;SAINTE-CECILE-D'ANDORGE;SPC-222-Sainte Cécile;2000-01-01;;44.243333;3.981667;7315;19172;291;5
30249001;SAINT-DIONIZY-SPC;SAINT-DIONISY;SPC-222-Saint Dionisy;2000-09-01;;43.800167;4.233000;7527;18683;36;5
30263003;SAINT-HIPPOLYTE-DU-FORT-SPC;SAINT-HIPPOLYTE-DU-FORT;SPC-222-Saint Hippolyte;2000-09-01;;43.960833;3.862500;7226;18856;190;5
30269007;SAINT-JEAN-DU-GARD-SPC;SAINT-JEAN-DU-GARD;SPC-223-Saint Jean du Gard;2003-10-31;;44.103833;3.883667;7239;19015;200;5
30310001;SAUMANE-SPC;SAUMANE;SPC-222-Saumane;2000-09-01;;44.120000;3.763333;7143;19031;300;5
30316004;SENECHAS-SPC;SENECHAS;SPC-223-Barrage-de-Senechas;2015-02-01;;44.319500;4.050000;7367;19258;300;5
30321002;SOMMIERES-SPC;SOMMIERES;SPC-222-Sommières;2000-09-01;;43.782500;4.089500;7412;18661;29;5
30322002;SOUDORGUES-SPC;SOUDORGUES;SPC-222-Soudorgues;2000-09-01;;44.062167;3.827500;7195;18968;550;5
30327001;THARAUX-SPC;THARAUX;SPC-222-Tharaux;2000-09-01;;44.243500;4.300500;7569;19178;96;5
30339009;VALLERAUGUE-SPC;VAL-D'AIGOUAL;SPC-222-Valleraugue;2004-08-01;;44.079000;3.653000;7055;18984;360;5
30341005;VAUVERT-SPC;VAUVERT;SPC-222-Vauvert;2000-09-01;2019-05-22;43.687333;4.247667;7542;18558;50;5
30349002;VIC-LE-FESQ-SPC;VIC-LE-FESQ;SPC-222-Vic Le Fesq;2000-09-01;;43.871333;4.078667;7401;18760;45;5
30350005;LE-VIGAN-SPC;LE VIGAN;SPC-222-Le Vigan;2001-01-01;2016-06-16;43.988833;3.591167;7007;18883;381;5
30350100;LA-TERRISSE-SPC;LE VIGAN;La-Terrisse;2020-07-01;;44.001167;3.654667;7058;18897;191;5
31020002;ASPET-SPC;ASPET;SPC-222-Aspet;2004-08-01;;43.021000;0.795333;4741;17810;446;5
31042013;LUCHON-SPC;BAGNERES-DE-LUCHON;SPC-222-Bagnères-de-Luchon;2011-01-01;;42.805833;0.602500;4578;17574;620;5
31048001;BAZIEGE-SPC;BAZIEGE;SPC-222-Baziege;2004-08-01;;43.451333;1.611000;5411;18280;160;5
31065002;BERAT-SPC;BERAT;SPC-222-Bérat;2006-01-01;2021-06-27;43.384000;1.174667;5056;18209;208;5
31080003;BOULOGNE-SUR-GESSE-SPC;BOULOGNE-SUR-GESSE;SPC-222-Boulogne-sur-Gesse;2004-08-01;;43.272500;0.664833;4640;18092;341;5
31139001;CHAUM-SPC;CHAUM;SPC-222-Chaum;2004-08-01;;42.938833;0.647667;4618;17721;492;5
31199001;FRONSAC-HYDRO-SPC;CHAUM;SPC-222-Fronsac;2007-01-01;2019-03-26;42.938833;0.647500;4618;17721;472;5
31232001;GRENADE-SPC;GRENADE;SPC-222-Grenade;2004-08-01;;43.770000;1.289500;5155;18637;115;5
31239004;L'ISLE-EN-DODON-SPC;L'ISLE-EN-DODON;SPC-222-L'isle-en-Dodon;2004-08-01;;43.377833;0.839333;4784;18207;200;5
31314001;MANCIOUX-SPC;MANCIOUX;SPC-222-Mancioux;2005-01-01;;43.157833;0.958000;4876;17960;316;5
31406003;CAZERES-SPC;PALAMINY;SPC-222-Palaminy;2004-08-01;;43.201833;1.071000;4969;18008;245;5
31424001;PLAISANCE-DU-TOUCH-SPC;PLAISANCE-DU-TOUCH;SPC-222-Plaisance-du-touch;2006-01-01;;43.565833;1.304167;5164;18410;168;5
31457001;ROQUEFORT-SUR-GARONNE-SPC;MAZERES-SUR-SALAT;SPC-222-Roquefort-sur-Garonne;2004-08-01;;43.152500;0.974833;4890;17954;276;5
31470003;SUPERBAGNERES-SPC;SAINT-AVENTIN;Superbagnères;2016-11-11;;42.759333;0.587500;4564;17523;1660;5
31471001;SAINT-BEAT-SPC;SAINT-BEAT-LEZ;SPC-223-SAINT-BEAT;2013-12-01;;42.916333;0.690000;4652;17696;496;5
31483003;VALENTINE-SPC;SAINT-GAUDENS;SPC-222-St-Gaudens;2004-08-01;;43.097500;0.706667;4670;17897;401;5
31499002;SAINT-LYS-SPC;SAINT-LYS;SPC-223-SAINT-LYS;2014-03-01;;43.504833;1.243833;5114;18343;189;5
31503001;ST-MARTORY-SPC;SAINT-MARTORY;SPC-222-St-Martory;2004-08-01;2011-10-25;43.142833;0.942833;4864;17944;316;5
31555017;TOULOUSE SAINT-MICHEL-SPC;TOULOUSE;SPC-222-Toulouse(Pont-Neuf);2004-08-01;;43.591500;1.438500;5273;18437;144;5
31555018;TOULOUSE PERIOLE-SPC;BALMA;SPC-222-Toulouse(Périole);2004-08-01;2021-11-23;43.628167;1.480167;5307;18477;144;5
32012001;AUBIET-SPC;AUBIET;SPC-222-Aubiet;2004-08-01;;43.646167;0.779167;4741;18506;173;5
32013008;AUCH-SPC;AUCH;SPC-222-Auch;2004-08-01;;43.665833;0.595167;4593;18531;130;5
32083001;CASTERA-VERDUZAN-SPC;CASTERA-VERDUZAN;SPC-222-Castera-Verduzan;2003-01-01;;43.804500;0.430500;4464;18688;110;5
32119004;EAUZE-SPC;EAUZE;SPC-222-Eauze;2006-01-01;;43.880333;0.102833;4202;18780;141;5
32132002;FLEURANCE-SPC;FLEURANCE;SPC-223-FLEURANCE;2014-03-01;;43.848000;0.671000;4659;18732;119;5
32147003;GIMONT-SPC;GIMONT;SPC-222-Gimont;2004-08-01;;43.629167;0.870000;4814;18486;179;5
32160002;L'ISLE-JOURDAIN-SPC;L'ISLE-JOURDAIN;SPC-222-L'isle-Jourdain;2004-08-01;;43.614167;1.075000;4980;18466;147;5
32173001;LABRIHE-SPC;LABRIHE;SPC-222-Labrihe;2004-08-01;2013-08-07;43.765833;0.867500;4815;18638;156;5
32192002;LANNUX-SPC;LANNUX;SPC-222-Lannux;2004-08-01;;43.646833;-0.234000;3923;18528;146;5
32208005;LECTOURE-SPC;LECTOURE;SPC-222-Lectoure;2004-08-01;;43.933833;0.611000;4612;18829;159;5
32213002;LOMBEZ-SPC;LOMBEZ;SPC-222-Lombez;2004-08-01;;43.475333;0.912333;4845;18314;171;5
32242007;MASSEUBE-SPC;MASSEUBE;SPC-222-Masseube;2004-08-01;;43.428333;0.585833;4580;18267;200;5
32249002;MAUVEZIN-SPC;MAUVEZIN;SPC-222-Mauvezin;1982-01-01;;43.730667;0.873667;4819;18599;120;5
32252003;MEILAN-SPC;MIELAN;SPC-222-Meilan;2004-08-01;2019-02-22;43.426167;0.291333;4341;18270;274;5
32256003;MIRANDE-SPC;MIRANDE;SPC-222-Mirande;2004-08-01;2022-01-06;43.515667;0.412167;4441;18368;162;5
32285002;MONTESQUIOU-SPC;MONTESQUIOU;SPC-222-Montesquiou;2010-01-01;;43.604500;0.338833;4384;18468;190;5
32290002;MONTREAL-SPC;MONTREAL;SPC-222-Montréal;2006-01-01;;43.950000;0.197167;4280;18855;115;5
32300001;ORBESSAN-SPC;ORBESSAN;SPC-222-Orbessan;2011-01-01;;43.543000;0.615167;4606;18394;152;5
32381001;SAINT-JEAN-LE-COMTAL-SPC;SAINT-JEAN-LE-COMTAL;SPC-222-St-Jean-le-Comtal;2010-01-01;;43.570333;0.538167;4545;18426;160;5
32382001;ST-JEAN-POUTGE-SPC;SAINT-JEAN-POUTGE;SPC-222-St-Jean-Poutge;2004-08-01;;43.723833;0.380333;4421;18600;111;5
32447001;PONTEJAC-SPC;TIRENT-PONTEJAC;SPC-222-Tirent-Pontejac;2011-01-01;;43.558333;0.796833;4754;18408;162;5
32462004;VIC-FEZENSAC-SPC;VIC-FEZENSAC;SPC-222-Vic-Fezensac;2004-08-01;;43.758667;0.304833;4361;18640;113;5
32464002;VILLECOMTAL-SUR-ARROS-SPC;VILLECOMTAL-SUR-ARROS;SPC-222-Villecomtal-sur-Arros;2004-08-01;;43.401167;0.196833;4264;18245;170;5
32466001;VIOZAN-SPC;VIOZAN;SPC-222-Viozan;2004-08-01;;43.394167;0.478333;4492;18231;226;5
33001001;ABZAC-SPC;ABZAC;SPC-222-Abzac;2004-08-01;2020-09-29;45.021667;-0.126000;4058;20054;27;5
33138002;COUTRAS-SPC;COUTRAS;SPC-222-Coutras;2004-08-01;2020-09-29;45.042167;-0.132333;4054;20077;15;5
33319002;PESSAC-SUR-DORDOGNE-SPC;PESSAC-SUR-DORDOGNE;SPC-222-Pessac-sur-Dordogne;2004-08-01;;44.819167;0.077167;4212;19824;18;5
34004001;AGEL-SPC;AGEL;SPC-222-Agel (34);2004-08-01;;43.342000;2.837167;6406;18157;99;5
34013002;ASPIRAN-SPC;ASPIRAN;SPC-223-Aspiran;1993-01-01;;43.568167;3.471000;6917;18414;25;5
34028004;BEDARIEUX-SPC;BEDARIEUX;SPC-223-Bédarieux;2004-08-01;2021-12-31;43.616667;3.157167;6663;18464;205;5
34032014;BEZIERS-SPC;BEZIERS;SPC-223-Béziers(Pont-Neuf);2004-08-01;2021-12-31;43.338333;3.208333;6708;18155;62;5
34044004;CABREROLLES-SPC;CABREROLLES;SPC-223-La Coquillade;2013-01-01;;43.557500;3.114500;6629;18398;668;5
34051002;CANET-SPC;CANET;SPC-223-Canet;2004-08-01;2012-12-31;43.598333;3.491833;6934;18447;34;5
34074002;CESSENON-SUR-ORB-1-SPC;CESSENON-SUR-ORB;SPC-222-Cessenon-1;2004-08-01;2018-04-17;43.450000;3.046667;6575;18278;60;5
34074003;LE-PUECH-SPC;CESSENON-SUR-ORB;SPC-222-Cessenon-2;2004-08-01;;43.426000;3.075333;6599;18252;180;5
34111002;GANGES-SPC;GANGES;SPC-223-Ganges;2004-08-01;2023-09-01;43.932333;3.702667;7098;18822;159;5
34114003;GIGNAC-SPC;GIGNAC;SPC-222-Gignac;2007-08-01;;43.663833;3.537500;6969;18521;69;5
34129001;3EME-ECLUSE-SPC;LATTES;SPC-223-Lattes;2008-02-02;2018-04-19;43.562833;3.895167;7261;18413;15;5
34140001;LIGNAN-SUR-ORB-SPC;LIGNAN-SUR-ORB;SPC-222-Tabarka;2004-08-01;2023-08-30;43.370000;3.175833;6681;18190;22;5
34142003;LODEVE-SPC;LODEVE;SPC-223-Lodève;2004-08-01;;43.728333;3.323667;6796;18590;160;5
34162002;MONTAGNAC-SPC;MONTAGNAC;SPC-223-Montagnac;2004-08-01;2018-04-17;43.474167;3.445833;6898;18309;43;5
34172015;MONTMORENCY-SPC;MONTPELLIER;SPC-223-Montpellier;2011-12-01;;43.609833;3.889833;7255;18466;24;5
34178002;MURVIEL-LES-BEZIERS-SPC;MURVIEL-LES-BEZIERS;SPC-222-Le Valet;2004-08-01;2023-08-29;43.468333;3.141667;6652;18299;90;5
34205002;LES PLANS-SPC;LES PLANS;SPC-222-Laquille;2004-08-01;;43.761000;3.243000;6730;18626;329;5
34217002;LE TRIADOU-SPC;PRADES-LE-LEZ;SPC-223-Prades-le-Lez;2008-09-28;2023-09-01;43.728667;3.867500;7235;18597;55;5
34221001;PUECHABON-SPC;PUECHABON;SPC-222-Puechabon;2004-08-01;;43.711667;3.615000;7031;18575;169;5
34225001;PUISSERGUIER-SPC;PUISSERGUIER;SPC-222-Puisserguier;2004-08-01;;43.362333;3.039500;6570;18180;83;5
34228003;RIEUSSEC-SPC;RIEUSSEC;SPC-222-Rieussec;2004-08-01;;43.419833;2.743000;6329;18243;500;5
34237002;ROUJAN-SPC;ROUJAN;SPC-223-Roujan;2000-01-01;2019-04-01;43.521667;3.310500;6788;18360;90;5
34245002;SAINT-CHINIAN-SPC;SAINT-CHINIAN;SPC-222-St Chinian;2004-08-01;;43.423333;2.947333;6495;18248;121;5
34249003;SAINT-DREZERY-SPC;SAINT-DREZERY;SPC-223-ST-DREZERY;2005-11-01;;43.735500;3.984833;7329;18607;121;5
34260003;SAINT-GERVAIS-SUR-MARE-SPC;SAINT-GERVAIS-SUR-MARE;SPC-222-St-Gervais-Sur-Mare;2007-08-01;;43.657000;3.051667;6577;18508;334;5
34270001;SAINT-JEAN-DE-VEDAS-SPC;SAINT-JEAN-DE-VEDAS;SPC-223-St-Jean-de-Vedas;1980-10-01;;43.552500;3.821833;7201;18401;25;5
34284005;SAINT-PONS-DE-THOMIERES-SPC;SAINT-PONS-DE-THOMIERES;SPC-222-St Pons;2004-08-01;2023-08-29;43.485833;2.781000;6360;18316;320;5
34319002;VAILHAN-SPC;VAILHAN;SPC-223-Vailhan-Les Olivettes;2004-08-01;2015-10-21;43.558500;3.297000;6777;18401;178;5
34322004;VALFLAUNES-SPC;VALFLAUNES;SPC-223-VALFLAUNES;2013-01-01;;43.792833;3.867667;7233;18669;170;5
34334001;VIEUSSAN-1-SPC;VIEUSSAN;SPC-222-Vieussan;2004-08-01;2021-12-31;43.538333;2.980000;6520;18376;182;5
34334002;VIEUSSAN-AVAL-SPC;VIEUSSAN;Vieussan-Aval;2020-07-01;;43.534667;2.985667;6525;18372;98;5
34335002;VILLEMAGNE-L'ARGENTIERE-SPC;VILLEMAGNE-L'ARGENTIERE;SPC-222-Villemagne;2004-08-01;2022-01-31;43.617167;3.120667;6633;18465;200;5
34335003;LE-PRADAL-SPC;VILLEMAGNE-L'ARGENTIERE;Le-Pradal;2020-07-01;;43.626667;3.111500;6626;18475;214;5
35002001;AMANLIS-SPC;AMANLIS;SPC-222-AMANLIS;2004-08-01;;48.009500;-1.473500;3157;23414;42;5
35012003;BAIN-DE-BRETAGNE-SPC;BAIN-DE-BRETAGNE;SPC-223-BAIN-DE-BRETAGNE;2004-08-01;;47.860000;-1.628333;3034;23253;105;5
35051001;CESSON-SEVIGNE-SPC;CESSON-SEVIGNE;SPC-222-CESSON-SEVIGNE(PONT-BRIAND);2004-08-01;2019-07-31;48.124167;-1.564167;3096;23544;35;5
35067001;CHASNE-SUR-ILLET-SPC;CHASNE-SUR-ILLET;SPC-223-CHASNE-SUR-ILLET;2004-08-01;;48.246667;-1.574333;3095;23681;57;5
35129002;GUIPRY-SPC;GUIPRY-MESSAC;SPC-223-GUIPRY;2004-08-01;2019-07-31;47.821667;-1.821667;2887;23218;30;5
35133001;IFFENDIC-SPC;IFFENDIC;;2018-02-03;;48.170000;-1.993667;2780;23612;43;5
35188004;MONTFORT-SUR-MEU-SPC;MONTFORT-SUR-MEU;SPC-222-MONTFORT(ABBAYE);2004-08-01;2018-02-05;48.128333;-1.943333;2815;23564;41;5
35194001;MONTREUIL-SOUS-PEROUSE-SPC;MONTREUIL-SOUS-PEROUSE;SPC-223-MONTREUIL-PEROUSE (CANTACHE);2004-08-01;2019-07-31;48.162667;-1.225000;3350;23575;65;5
35195001;MONTREUIL-SUR-ILLE-SPC;MONTREUIL-SUR-ILLE;SPC-222-MONTREUIL-SUR-ILLE(ECLUSE III);2004-08-01;2019-07-31;48.296667;-1.671667;3026;23740;55;5
35210001;PACE-SPC;PACE;SPC-223-PACE(TIXUE);2004-08-01;;48.181667;-1.778333;2940;23616;50;5
35328002;SIXT-SUR-AFF-SPC;SIXT-SUR-AFF;SPC-222-SIXT-SUR-AFF;2004-08-01;2008-07-31;47.784167;-2.083333;2689;23187;46;5
35341001;TREMBLAY-SPC;VAL-COUESNON;SPC-222-TREMBLAY;2017-01-15;2019-07-31;48.427500;-1.435000;3208;23877;54;5
36120001;MERS-SUR-INDRE-SPC;MERS-SUR-INDRE;SPC-223-Mers-sur-Indre;2006-09-01;2011-08-25;46.667500;1.875833;5647;21854;182;5
38334400;REFUGE DE LA PRA;REVEL;refuge de la Pra;2020-07-01;;45.156667;5.940000;8833;20238;2105;5
38375404;REFUGE DE LA PILATTE;SAINT-CHRISTOPHE-EN-OISANS;Glacier de la Pilatte;2020-07-01;2020-09-05;44.868833;6.325833;9152;19933;2574;5
38375405;REFUGE DU PROMONTOIRE;SAINT-CHRISTOPHE-EN-OISANS;Le Promontoire;2020-07-01;;44.992333;6.302000;9127;20070;3060;5
38375406;REFUGE DE TEMPLE ECRINS;SAINT-CHRISTOPHE-EN-OISANS;;2021-07-09;;44.902500;6.326000;9150;19971;2410;5
38522400;REFUGE DE FONT TURBA;VALJOUFFREY;Les Louvets;2020-07-01;;44.858833;6.174167;9033;19916;2167;5
39059001;BOIS D'AMONT CHALET-GAILLARD;BOIS-D'AMONT;;1980-11-01;;46.563333;6.121667;8900;21807;1230;5
39470400;LES ROUSSES_NEIGE;LES ROUSSES;Téleski les tuffes;2023-10-01;;46.453667;6.065500;8863;21683;1150;5
40224003;PEYREHORADE-SPC;PEYREHORADE;SPC-222-Peyrehorade;2004-08-01;;43.543333;-1.105500;3214;18440;9;5
40230002;PONTONX-SUR-L'ADOUR-SPC;PONTONX-SUR-L'ADOUR;SPC-222-Pontonx-sur-L'adour;2004-08-01;;43.784000;-0.925667;3371;18702;26;5
40331001;VILLENEUVE-DE-MARSAN-SPC;VILLENEUVE-DE-MARSAN;SPC-222-Villeneuve-de-Marsan;2004-08-01;;43.902000;-0.304333;3876;18814;85;5
41135003;MENNETOU-SUR-CHER-SPC;MENNETOU-SUR-CHER;SPC-223-MENNETOU-SUR-CHER;2004-08-01;;47.268333;1.870667;5647;22522;96;5
41232003;SALBRIS-SPC;SALBRIS;SPC-223-SALBRIS;2004-08-01;2011-03-25;47.423333;2.033000;5770;22693;106;5
42005003;ANDREZIEUX-BOUTHEON-SPC;ANDREZIEUX-BOUTHEON;SPC-223-Andrezieux-Boutheon;2004-08-01;2011-08-25;45.528333;4.251667;7496;20605;380;5
42059002;CHAZELLES-SUR-LYON-SPC;CHAZELLES-SUR-LYON;SPC-222-Moulin-Brulé;2011-01-01;;45.610167;4.375667;7590;20698;430;5
42069001;COMMELLE-VERNAY-SPC;COMMELLE-VERNAY;SPC-223-Commelle-Vernay;2004-08-01;2014-11-01;45.985833;4.048333;7326;21110;351;5
42094004;FEURS-SPC;FEURS;SPC-223-Amont;2004-08-01;;45.741667;4.211667;7459;20841;342;5
42098002;FOURNEAUX-SPC;FOURNEAUX;SPC-223-Fourneaux;2006-09-01;;45.936667;4.267667;7497;21059;489;5
42159003;NOIRETABLE-SPC;NOIRETABLE;SPC-222-Noiretable;2004-08-01;;45.820667;3.760000;7106;20922;708;5
42188001;ROCHE-SPC;ROCHE;SPC-223-ROCHE;2017-12-01;;45.617667;3.937833;7249;20699;1011;5
42218018;ST-ETIENNE-SPC;SAINT-ETIENNE;SPC-223-Les Essertines;2016-09-28;;45.386667;4.456000;7660;20451;995;5
42224004;SAINT-GENEST-MALIFAUX-SPC;SAINT-GENEST-MALIFAUX;SPC-222-St-Genest-Malifaux;2004-08-01;;45.343500;4.420833;7633;20403;960;5
42227003;SAINT-GEORGES-EN-COUZAN-SPC;SAINT-GEORGES-EN-COUZAN;SPC-222-St-Georges-en-Couzan;2004-08-01;;45.701500;3.927667;7239;20792;820;5
42248004;SAINT-JUST-EN-CHEVALET-SPC;SAINT-JUST-EN-CHEVALET;SPC-223-St-Just-en-Chevalet;2004-08-01;;45.908333;3.843333;7169;21020;647;5
42291001;SAINT-THURIN-SPC;VETRE-SUR-ANZON;Pic de Mayen;2019-05-13;;45.827500;3.878000;7197;20931;717;5
42306002;PAS-DE-RIOT-SPC;TARENTAISE;SPC-222-Tarentaise(Pas de Riot);2004-08-01;2017-03-02;45.379333;4.458000;7661;20443;881;5
42332001;VILLEREST-BARRAGE-SPC;VILLEREST;BARRAGE;1999-09-01;;45.987833;4.044333;7323;21112;329;5
43012001;AUREC-SUR-LOIRE-SPC;AUREC-SUR-LOIRE;;2021-06-07;;45.388500;4.177833;7442;20448;820;5
43020003;BAS-EN-BASSET3-SPC;BAS-EN-BASSET;SPC-222-Bas-en-Basset(3);2004-08-01;2017-09-20;45.303667;4.114500;7394;20353;468;5
43025001;BEAUZAC-SPC;BEAUZAC;SPC-223-Chanteduc;2016-06-06;;45.261500;4.131500;7409;20306;643;5
43040002;BRIOUDE-SPC;BRIOUDE;SPC-223-Brioude;2004-08-01;;45.299167;3.390833;6827;20337;437;5
43042002;CAYRES-SPC;CAYRES;SPC-223-Cayres;2004-08-01;;44.920000;3.805333;7160;19921;1114;5
43048003;LA-CHAISE-DIEU-SPC;LA CHAISE-DIEU;SPC-222-La Chaise-Dieu;2004-08-01;;45.326667;3.698167;7067;20372;1073;5
43051002;LE CHAMBON-SUR-LIGNON 1-SPC;LE CHAMBON-SUR-LIGNON;SPC-222-Chambon-sur-Lignon(1);2004-08-01;2007-06-13;45.056667;4.301667;7548;20082;958;5
43051003;LE-CHAMBON-SUR-LIGNON-SPC;LE CHAMBON-SUR-LIGNON;SPC-222-Chambon-sur-Lignon(2);2004-08-01;;45.057500;4.302500;7548;20083;958;5
43053002;CHAMPCLAUSE-SPC;CHAMPCLAUSE;SPC-223-BOUSSOULET;2018-05-31;;45.033333;4.119000;7405;20052;1243;5
43080002;CRAPONNE-SUR-ARZON-SPC;CRAPONNE-SUR-ARZON;SPC-223-CRAPONNE-SUR-ARZON;2017-12-01;;45.345000;3.851000;7187;20394;1012;5
43092002;FAY-SUR-LIGNON-SPC;FAY-SUR-LIGNON;SPC-223-Fay-sur-Lignon;2004-08-01;2021-03-01;44.983500;4.228333;7492;19999;1180;5
43092003;LES-VASTRES-SPC;FAY-SUR-LIGNON;SPC-223-Pont-Marie;2005-07-07;;44.990500;4.242000;7503;20007;1080;5
43095003;FIX-SAINT-GENEYS-SPC;FIX-SAINT-GENEYS;SPC-223-Fix-St-Geneys;2004-08-01;;45.145833;3.665000;7045;20170;1110;5
43101001;GOUDET 1-SPC;GOUDET;SPC-222-Goudet(1);2004-08-01;2011-06-24;44.888333;3.921667;7252;19888;785;5
43101002;GOUDET-SPC;GOUDET;SPC-222-Goudet;2004-08-01;;44.888333;3.921667;7252;19888;785;5
43135003;LE-MONASTIER-SUR-GAZEILLE1-SPC;LE MONASTIER-SUR-GAZEILLE;SPC-222-Monastier-sur-Gazeille;2004-08-01;2017-05-31;44.946333;3.988333;7304;19953;940;5
43135004;LE-MONASTIER-SUR-GAZEILLE-SPC;LE MONASTIER-SUR-GAZEILLE;SPC-223-La Besseyre Haute;2014-02-19;;44.928000;4.040333;7345;19934;930;5
43135005;LE-MONASTIER-SUR-GAZEILLE2-SPC;LE MONASTIER-SUR-GAZEILLE;SPC-223-La Moutette;2016-09-28;;44.940167;4.000333;7313;19947;1010;5
43141001;MONTFAUCON-EN-VELAY-SPC;MONTFAUCON-EN-VELAY;SPC-222-Montfaucon-en-Velay;2004-08-01;;45.186500;4.326333;7564;20226;919;5
43157008;CHADRAC-SPC;LE PUY-EN-VELAY;SPC-223-Le Puy-en-Velay;2004-08-01;;45.055167;3.894333;7227;20073;715;5
43163001;RIOTORD-SPC;RIOTORD;SPC-223-LES-SETOUX;2019-12-01;;45.224333;4.455500;7664;20271;1158;5
43186003;ST-FRONT-SPC;SAINT-FRONT;SPC-223-Machabert;2004-08-01;;44.981000;4.118167;7405;19994;1225;5
43199001;SAINT-JEURES-SPC;SAINT-JEURES;SPC-222-St-Jeures;2004-08-01;;45.077333;4.216333;7480;20103;1040;5
43203001;ST-JULIEN-DU-PINET-SPC;SAINT-JULIEN-DU-PINET;SPC-223-Mortessagne;2004-08-01;;45.144333;4.054167;7351;20174;942;5
43234006;SAUGUES-SPC;SAUGUES;SPC-223-Saugues;2004-08-01;;44.971167;3.550833;6958;19975;963;5
43245003;THORAS-SPC;THORAS;SPC-223-Thoras;2006-09-01;;44.864167;3.562167;6969;19856;1083;5
44044001;CONQUEREUIL-SPC;CONQUEREUIL;SPC-222-CONQUEREUIL;2004-08-01;2019-07-31;47.619333;-1.741500;2935;22990;28;5
44051003;DERVAL-SPC;DERVAL;SPC-223-DERVAL(CHERE-MOUAIS);2004-08-01;;47.710333;-1.704167;2968;23090;55;5
45229001;NOGENT-SUR-V.;NOGENT-SUR-VERNISSON;LES BARRES;1873-01-01;;47.834833;2.757667;6315;23151;145;5
45234009;ORLEANS-INRAE;ORLEANS;;2012-02-09;;47.827167;1.909333;5680;23143;103;5
46015001;BAGNAC-SUR-CELE-SPC;BAGNAC-SUR-CELE;SPC-222-Bagnac-sur-Cele;2004-08-01;;44.664500;2.158333;5858;19626;240;5
46038004;BRETENOUX-SPC;BRETENOUX;SPC-222-Bretenoux;2004-08-01;;44.915500;1.838667;5606;19907;136;5
46055001;CAPDENAC-SPC;CAPDENAC;SPC-222-Capdenac;2004-08-01;;44.573000;2.070000;5788;19525;168;5
46058002;CARENNAC-SPC;CARENNAC;SPC-222-Carennac;2004-08-01;;44.915667;1.744667;5532;19907;127;5
46102009;FIGEAC-SPC;FIGEAC;SPC-222-Figeac;2004-08-01;;44.607000;2.034167;5759;19563;198;5
46113002;FRAYSSINET-SPC;SAINT-CHAMARAND;SPC-222-Frayssinet(Pont de Rodes);2004-08-01;;44.672500;1.476000;5317;19639;255;5
46117001;GAGNAC-SUR-CERE-SPC;GAGNAC-SUR-CERE;SPC-222-Gagnac-sur-cére(Brugales);2004-08-01;;44.942500;1.917500;5669;19936;150;5
46255001;SAINT-CIRGUES-SPC;SAINT-CIRGUES;SPC-222-St-Cirgues;2004-08-01;;44.736667;2.121000;5829;19707;540;5
46297004;SALVIAC-PONT DE JARDEL-SPC;SALVIAC;SPC-222-Salviac-Pont de Jardel;2004-08-01;;44.714833;1.287500;5168;19688;135;5
46308001;SOUCIRAC-SPC;SOUCIRAC;SPC-223-Soucirac;2005-01-01;;44.721000;1.511000;5345;19693;341;5
46309006;SOUILLAC-SPC;LANZAC;SPC-222-Souillac;2004-08-01;;44.882500;1.484167;5326;19872;120;5
47001006;AGEN-SPC;AGEN;SPC-223-Agen;2013-04-23;2021-09-30;44.202333;0.609167;4618;19128;57;5
47143002;LAVARDAC-SPC;LAVARDAC;SPC-222-Lavardac;2006-01-01;;44.181500;0.298000;4368;19110;48;5
47167005;MEZIN-SPC;MEZIN;SPC-222-Mezin;2006-01-01;;44.075167;0.247167;4324;18993;70;5
48014002;BAGNOLS-LES-BAINS-SPC;MONT LOZERE ET GOULET;SPC-223-Bagnols-les-bains;2004-08-01;;44.506667;3.666667;7058;19460;923;5
48019003;BARRE-DES-CEVENNES-SPC;BARRE-DES-CEVENNES;SPC-222-Barre des Cévennes;2000-01-01;;44.238833;3.657167;7055;19162;920;5
48036005;CASSAGNAS-SPC;CASSAGNAS;SPC-223-Cassagnas;2004-08-01;;44.271167;3.730833;7114;19199;837;5
48043002;CHATEAUNEUF-DE-RANDON-SPC;CHATEAUNEUF-DE-RANDON;SPC-223-L'HABITARELLE;2004-08-01;;44.633167;3.673333;7061;19600;1180;5
48050001;COCURES-SPC;BEDOUES-COCURES;SPC-223-Cocures;2004-08-01;;44.345833;3.620667;7024;19280;605;5
48061003;FLORAC-SPC;FLORAC TROIS RIVIERES;SPC-223-Florac;2004-08-01;;44.331500;3.591500;7001;19264;549;5
48080003;LANGOGNE-1-SPC;LANGOGNE;SPC-223-Langogne(1);2004-08-01;2008-02-12;44.735000;3.858333;7205;19716;920;5
48080004;LANGOGNE-SPC;LANGOGNE;SPC-223-Pont;2004-08-01;;44.734167;3.856667;7204;19715;920;5
48080005;LANGOGNE-3-SPC;LANGOGNE;SPC-223-Barrage de Naussac;2004-08-01;;44.747833;3.825167;7179;19730;920;5
48095007;MENDE-SPC;MENDE;SPC-223-Mende;2004-08-01;;44.520833;3.505000;6929;19473;726;5
48096005;MEYRUEIS-SPC;MEYRUEIS;SPC-223-Meyrueis;2004-08-01;;44.179333;3.433333;6877;19093;720;5
48097002;MOISSAC-VALLEE-FRANCAISE-SPC;MOISSAC-VALLEE-FRANCAISE;SPC-222-St-Roman;2000-09-01;;44.148667;3.768667;7146;19063;300;5
48099001;LE MONASTIER-PIN-MORIES-SPC;BOURGS SUR COLAGNE;SPC-223-Monastier-Pin-Mories;2012-03-01;;44.509167;3.254667;6730;19458;601;5
48101001;MONTBRUN-SPC;GORGES DU TARN CAUSSES;SPC-223-Pont de Montbrun;2004-08-01;2011-10-26;44.333333;3.496667;6925;19265;560;5
48172004;ST-MAURICE-DE-VENTALON-SPC;PONT DE MONTVERT - SUD MONT LOZERE;SPC-222-Berthel;2000-01-01;;44.319333;3.832333;7194;19254;1100;5
48193001;VEBRON-SPC;VEBRON;SPC-223-Vebron;2004-08-01;;44.238333;3.578333;6992;19160;665;5
48198004;VILLEFORT-SPC;VILLEFORT;SPC-223-Villefort;2000-09-01;;44.441000;3.924833;7265;19391;583;5
52225001;GONCOURT-SPC;BOURMONT-ENTRE-MEUSE-ET-MOUZON;SPC-223-Goncourt;2004-08-01;;48.238333;5.612500;8433;23650;321;5
53086003;LA CROIXILLE-SPC;LA CROIXILLE;SPC-222-LA CROIXILLE(BOURGON);2004-08-01;2019-07-31;48.186667;-1.058333;3475;23596;171;5
54039004;BACCARAT-SPC;BACCARAT;SPC-222-Baccarat;2004-08-01;;48.442333;6.747667;9262;23918;265;5
54077003;BLAMONT-SPC;BLAMONT;SPC-222-Blamont;2004-08-01;;48.588333;6.845000;9325;24084;265;5
54152001;DAMELEVIERES-SPC;DAMELEVIERES;SPC-222-Damelevières;2004-08-01;;48.563333;6.383333;8986;24038;216;5
54222001;GERBEVILLER-SPC;GERBEVILLER;SPC-222-Gerbeviller;2004-08-01;;48.486667;6.521667;9093;23958;246;5
54351001;MARBACHE-SPC;MARBACHE;SPC-222-Marbache;2004-08-01;;48.788333;6.121333;8781;24278;206;5
54400003;NOMENY-SPC;NOMENY;SPC-223-Nomeny;2004-08-01;;48.881667;6.233500;8858;24386;201;5
54574001;VILLERS-LA-CHEVRE-SPC;VILLERS-LA-CHEVRE;SPC-222-Villers-la-Chèvre;2004-08-01;;49.505000;5.690000;8430;25060;361;5
55043002;BELLEVILLE-SUR-MEUSE-SPC;BELLEVILLE-SUR-MEUSE;SPC-222-Belleville-sur-Meuse;2004-08-01;;49.172500;5.379833;8220;24681;198;5
55357001;MORGEMOULIN-SPC;MORGEMOULIN;SPC-223-Morgemoulin;2011-10-01;;49.234167;5.581167;8364;24756;210;5
55502005;STENAY-SPC;STENAY;SPC-223-Stenay;2004-08-01;;49.493333;5.180000;8061;25033;169;5
56023001;BRECH-SPC;BRECH;SPC-222-BRECH;2017-01-15;2019-08-31;47.722500;-2.988833;2007;23161;21;5
56081002;GUISCRIFF-SPC;GUISCRIFF;SPC-222-GUISCRIFF(Cleuziou-Guen);2004-08-01;2019-08-31;48.024167;-3.625000;1556;23530;188;5
56105002;LANVENEGEN-SPC;LANVENEGEN;SPC-222-LANVENEGEN(Loge-Coucou);2004-08-01;2019-07-31;47.985000;-3.493333;1651;23479;110;5
56124002;MALESTROIT-SPC;MALESTROIT;SPC-223-(Ecluse Malestroit);2006-09-01;2019-08-31;47.812167;-2.382500;2467;23231;16;5
56144002;NAIZIN-SPC;EVELLYS;SPC-223-NAIZIN(STE-BRIGITTE);2004-08-01;2016-12-19;48.016667;-2.805833;2165;23478;120;5
56160001;PLEUGRIFFET-SPC;PLEUGRIFFET;SPC-223-PLEUGRIFFET(CADORET);2004-08-01;;47.998667;-2.652500;2278;23451;104;5
56170002;PLOURAY-SPC;PLOURAY;SPC-222-PLOURAY(Kerroc'h);2004-08-01;2019-08-31;48.122500;-3.367500;1756;23624;196;5
56178004;PONTIVY-SPC;PONTIVY;SPC-223-PONTIVY(SUBDI);2004-08-01;2019-08-31;48.058333;-2.967500;2048;23532;70;5
56203001;ST-AIGNAN-SPC;SAINT-AIGNAN;SPC-223-St-AIGNAN(LE TOULDREN);2004-08-01;2019-08-31;48.175667;-3.012333;2024;23665;83;5
56242001;SEGLIEN-SPC;SEGLIEN;SPC-223-SEGLIEN;2004-08-01;;48.105333;-3.159667;1909;23594;220;5
57126001;CHAMBREY-SPC;CHAMBREY;SPC-222-Chambrey;2004-08-01;;48.784333;6.457167;9028;24286;209;5
57209003;FAULQUEMONT-SPC;FAULQUEMONT;SPC-222-FAULQUEMONT;2007-05-01;;49.046667;6.614500;9128;24584;251;5
57489002;MOUTERHOUSE-SPC;MOUTERHOUSE;SPC-222-Mouterhouse;2013-04-14;2020-09-18;48.984167;7.452500;9744;24551;251;5
57587002;RODALBE-SPC;RODALBE;SPC-223-Rodalbe;2004-08-01;;48.914833;6.690333;9191;24440;242;5
58062004;CHATEAU-CHINON-SPC;CHATEAU-CHINON (VILLE);SPC-223-Chateau-Chinon;2004-08-01;;47.070333;3.934333;7213;22313;594;5
58144001;LIVRY-SPC;LIVRY;SPC-223-Pont du Veurdre;2004-08-01;;46.758833;3.049667;6544;21957;192;5
58149004;LUZY-SPC;LUZY;SPC-222-Luzy;2004-08-01;;46.789167;3.962500;7241;22001;270;5
58267004;SAINT-SAULGE-SPC;SAINT-SAULGE;SPC-223-St-Saulge;2004-08-01;;47.103000;3.511333;6891;22343;310;5
58306001;VERNEUIL-SPC;VERNEUIL;SPC-223-Verneuil;2014-07-03;;46.853167;3.573833;6943;22067;198;5
59033001;AULNOYE-AYMERIES-SPC;AULNOYE-AYMERIES;SPC-222-Aulnoye-Aymeries(Ecluse du pont);1961-11-01;;50.201500;3.817333;7059;25794;139;5
59035002;AVESNELLES-SPC;AVESNES-SUR-HELPE;SPC-223-Avesnelles;2004-08-01;;50.123500;3.927167;7139;25709;182;5
59057001;BEAUDIGNIES-01-SPC;BEAUDIGNIES;SPC-222-Beaudignies;1965-07-01;2021-04-01;50.236833;3.591667;6897;25831;82;5
59091001;BORRE-01-SPC;BORRE;SPC-223-Borre;1966-03-01;;50.733333;2.576000;6169;26377;30;5
59180001;LE DOULIEU-SPC;LE DOULIEU;SPC-222-Le Doulieu(LA BRIONNE);1994-09-01;;50.683333;2.668333;6235;26322;17;5
59230001;FERRIERE-LA-GRANDE-SPC;FERRIERE-LA-GRANDE;SPC-223-Ferriere-la-Grande;2012-07-10;;50.262667;3.997667;7186;25865;133;5
59384003;MAROILLES-SPC;LOCQUIGNOL;SPC-223-Maroilles(ECLUSE D'HACHETTE);1966-03-07;;50.156000;3.760667;7019;25743;151;5
59392002;MAUBEUGE-SPC;MAUBEUGE;SPC-222-Maubeuge;1961-04-01;2012-07-01;50.275000;3.974833;7169;25878;130;5
59555001;SARS-POTERIES-SPC;SARS-POTERIES;SPC-222-Sars-Poteries(LE LION D'OR);1973-01-01;;50.168333;4.048333;7225;25761;178;5
59659001;WIGNEHIES-01-SPC;WIGNEHIES;SPC-222-Wignehies(STATION D'EPURAT.);1990-01-01;;50.018167;4.019667;7208;25593;175;5
59661002;WILLIES-SPC;WILLIES;SPC-222-Willies;1982-01-01;;50.120000;4.111333;7271;25708;183;5
62014001;AIRE-LYS-SPC;AIRE-SUR-LA-LYS;SPC-222-Aire-sur-la-lys(ECL. FORT GASS);1971-10-01;;50.646000;2.414333;6055;26280;20;5
62041005;ARRAS_SRM_RETZ;ARRAS;AGGL.;1776-04-01;1777-12-31;50.288333;2.766667;6307;25882;75;5
62168001;BOURTHES-01-SPC;BOURTHES;SPC-223-Bourthes;1966-03-01;;50.602500;1.934167;5714;26232;125;5
62178004;BRUAY-LA-BUISSIERE-SPC;BRUAY-LA-BUISSIERE;SPC-222-Bruay-la-Buissière;1989-05-12;;50.486500;2.542500;6146;26102;52;5
62268004;DESVRES-01-SPC;DESVRES;SPC-223-Desvres(NOE);1986-01-01;;50.670833;1.830167;5641;26309;98;5
62325002;FAUQUEMBERGUES-01-SPC;AUDINCTHUN;SPC-223-Fauquembergues;1966-05-01;;50.599333;2.126833;5851;26228;80;5
62429002;HENNEVEUX-SPC;HENNEVEUX;SPC-223-Henneveux;1972-05-09;;50.716167;1.858333;5661;26359;56;5
62431001;HERBELLES-01-SPC;BELLINGHEM;SPC-223-Herbelles;1966-03-01;;50.655000;2.225167;5921;26290;90;5
62642001;OURTON-SPC;OURTON;SPC-223-Ourton;1966-04-01;;50.456667;2.478333;6100;26069;80;5
62765002;SAINT-OMER-01-SPC;SAINT-OMER;SPC-222-St-Omer(ECLUSE DU HAUT PONT);1952-08-01;;50.766333;2.262333;5947;26414;3;5
62896001;WIRWIGNES-01-SPC;WIRWIGNES;SPC-222-Wirwignes;1968-04-01;;50.681333;1.768333;5597;26321;32;5
63038006;BESSE-ET-SAINT-ANASTAISE-SPC;BESSE-ET-SAINT-ANASTAISE;SPC-223-Besse-et-St-Anastaise;2004-08-01;;45.513667;2.936667;6469;20572;1027;5
63062001;BUXIERES-SOUS-MONTAIGUT-SPC;BUXIERES-SOUS-MONTAIGUT;SPC-223-LES-CROUZILLONS;2021-07-01;;46.216167;2.832833;6382;21352;627;5
63117001;BRION-SPC;COMPAINS;Brion Haut;2021-10-01;;45.415667;2.955167;6484;20463;1209;5
63142002;ECHANDELYS-SPC;ECHANDELYS;SPC-223-Les deux frères;2004-08-01;;45.540833;3.559167;6955;20608;1070;5
63163004;GELLES-SPC;GELLES;SPC-223-Gelles;2004-08-01;;45.753333;2.800000;6360;20838;782;5
63175006;HERMENT-SPC;HERMENT;SPC-223-Herment;2004-08-01;;45.755000;2.571833;6183;20839;820;5
63305003;ROCHEFORT-MONTAGNE-SPC;ROCHEFORT-MONTAGNE;SPC-223-Rochefort-Montagne;2004-08-01;;45.682000;2.799500;6360;20758;920;5
63365002;SAINT-JEAN-DES-OLLIERES-SPC;SAINT-JEAN-DES-OLLIERES;SPC-222-St-Jean-des-Ollières;2004-08-01;;45.643000;3.433667;6855;20720;679;5
63441002;VALCIVIERES-SPC;VALCIVIERES;SPC-223-Valcivières;2004-08-01;;45.593333;3.796000;7138;20669;850;5
63465003;VIVEROLS-SPC;VIVEROLS;SPC-222-Viverols;2004-08-01;;45.432833;3.891500;7216;20492;874;5
64060002;ARTIGUELOUVE-SPC;LESCAR;SPC-222-Artiguelouve;2004-08-01;;43.318833;-0.453333;3733;18170;158;5
64102005;BAYONNE-SPC;BAYONNE;SPC-222-LESSEPS;2004-08-01;;43.497500;-1.478333;2910;18403;5;5
64110003;BEOST-SPC;BEOST;SPC-222-Béost;2004-08-01;;42.993333;-0.419333;3748;17807;534;5
64205001;ESCOS-SPC;ESCOS;SPC-222-Escos;2004-08-01;;43.440833;-0.994167;3300;18322;45;5
64316004;LARRAU-SPC;LARRAU;SPC-222-Larrau;2004-08-01;;43.018333;-0.949667;3316;17851;636;5
64336005;LESCUN-SPC;LESCUN;SPC-222-Lescun;2004-08-01;;42.935167;-0.638167;3567;17748;893;5
64371004;MAULEON-LICHARRE-SPC;MAULEON-LICHARRE;SPC-222-Mauléon-Licharre;2004-08-01;;43.221833;-0.887000;3376;18075;139;5
64417002;NAY-SPC;NAY;SPC-222-Nay;2004-08-01;;43.180000;-0.258833;3886;18010;252;5
64422006;OLORON-SAINTE-MARIE-SPC;OLORON-SAINTE-MARIE;SPC-222-Oloron-Ste-Marie;2004-08-01;;43.199500;-0.608167;3602;18042;211;5
64475004;SAINTE-ENGRACE-SPC;SAINTE-ENGRACE;SPC-222-Ste-Engrace;2004-08-01;;43.003833;-0.849000;3397;17832;436;5
64477001;SAINT-ETIENNE-DE-BAIGORRY-SPC;SAINT-ETIENNE-DE-BAIGORRY;SPC-222-ST-ETIENNE-DE-BAIGORRY;2007-05-01;;43.184167;-1.335833;3009;18049;164;5
64495002;SAINT-PEE-SUR-NIVELLE-SPC;SAINT-PEE-SUR-NIVELLE;SPC-222-St-Pée-sur-Nivelle(Cherchebruit);2004-08-01;;43.321500;-1.549833;2843;18211;26;5
64504003;SARE-SPC;SARE;SPC-222-Sare;2004-08-01;;43.330167;-1.585500;2814;18222;77;5
64542007;URDOS-SPC;URDOS;SPC-222-Urdos;2004-08-01;;42.877667;-0.558500;3629;17682;780;5
65025004;ARGELES-GAZOST-SPC;ARGELES-GAZOST;SPC-222-Argeles;2004-08-01;;43.005333;-0.081667;4024;17811;453;5
65027001;LOUDENVIELLE-SPC;LOUDENVIELLE;SPC-223-Loudenvielle;2008-01-01;;42.811333;0.408833;4419;17584;956;5
65031003;ARREAU-SPC;ARREAU;SPC-222-LOURON;2004-08-01;;42.903833;0.361000;4383;17688;717;5
65033001;ARRODETS-SPC;ARRODETS-EZ-ANGLES;SPC-223-ARRODETS;2011-09-22;;43.072500;0.032500;4119;17883;653;5
65059020;BAGNERES-DE-BIGORRE-SPC;BAGNERES-DE-BIGORRE;SPC-222-BAGNERES-DE-BIGORRE;2007-05-01;;43.060833;0.155000;4219;17867;558;5
65059021;BAGNERES-DE-BIGORRE-002-SPC;BAGNERES-DE-BIGORRE;SPC-223-Chiroulet;2011-02-21;;42.961667;0.090000;4163;17758;1085;5
65123004;CAMPAN-SPC;CAMPAN;SPC-222-Campan(Sarrat de Bon);2004-08-01;;42.950000;0.246000;4290;17742;690;5
65123006;CAMPAN-002-SPC;CAMPAN;SPC-223-Payolle;2011-02-21;;42.943500;0.278000;4316;17734;1102;5
65138007;REFUGE WALLON;CAUTERETS;VALLEE DU MARCADAU;2006-06-01;;42.820333;-0.194667;3925;17608;1870;5
65138008;REF OULETTES;CAUTERETS;Oulettes de Gaube;1991-06-01;2024-10-13;42.792833;-0.141500;3968;17576;2151;5
65286004;LOURDES SAINT-MICHEL-SPC;LOURDES;SPC-222-Lourdes Saint-Michel;2004-08-01;;43.098333;-0.051333;4052;17914;370;5
65295002;LUZ-SAINT-SAUVEUR-SPC;LUZ-SAINT-SAUVEUR;SPC-222-Luz-St-Sauveur;2004-08-01;;42.870000;-0.012667;4076;17659;726;5
65304002;MAUBOURGUET-SPC;MAUBOURGUET;SPC-222-Maubourguet;2004-08-01;;43.465833;0.029500;4130;18320;177;5
65388003;SAINT-LARY-SOULAN-SPC;CADEILHAN-TRACHERE;SPC-223-St-Lary-Soulan;2007-01-01;;42.814167;0.317333;4344;17589;822;5
65440004;TARBES-SPC;TARBES;SPC-222-Tarbes;2004-08-01;2008-01-23;43.220833;0.049167;4138;18048;310;5
65447002;TOURNAY-SPC;TOURNAY;SPC-222-Tournay;2004-08-01;;43.184000;0.241167;4293;18002;272;5
65452003;TRIE-SUR-BAISE-SPC;TRIE-SUR-BAISE;SPC-222-Trie-sur-Baise;2004-08-01;;43.321333;0.375000;4406;18152;244;5
65465001;REF DU BASTANET;VIELLE-AURE;LACS DE BASTAN;2006-06-25;2021-10-01;42.853167;0.209667;4257;17635;2252;5
66002001;ALENYA-INRAE;ALENYA;MAS BLANC-INRA;1968-01-01;;42.638333;2.966667;6518;17374;5;5
66003004;AMELIE-LES-BAINS-PALALDA-SPC;AMELIE-LES-BAINS-PALALDA;SPC-222-Amelie les bains;2004-08-01;;42.473333;2.673333;6277;17189;234;5
66006001;ANSIGNAN-SPC;ANSIGNAN;SPC-223-Ansignan;1974-01-01;;42.754667;2.523167;6153;17502;170;5
66006002;ANSIGNAN0_SPC;ANSIGNAN;SPC-Ansignan;1962-02-13;2005-06-30;42.765667;2.507167;6139;17514;300;5
66008006;ARGELES-SUR-MER-1-SPC;ARGELES-SUR-MER;SPC-222-Argeles;2004-08-01;;42.545000;3.028333;6569;17271;18;5
66008007;ARGELES-SUR-MER-2-SPC;ARGELES-SUR-MER;SPC-222-Mas d'en Tourens;2004-08-01;;42.524167;2.986667;6535;17247;18;5
66009003;ARLES-SUR-TECH-1-SPC;ARLES-SUR-TECH;SPC-222-Pas du Loup;2004-08-01;;42.434167;2.596667;6214;17145;288;5
66009004;ARLES-SUR-TECH-2-SPC;ARLES-SUR-TECH;SPC-222-Village;2004-08-01;;42.463333;2.644167;6253;17178;288;5
66016003;BANYULS-SUR-MER-1-SPC;BANYULS-SUR-MER;SPC-222-Les Abeilles;2004-08-01;2008-05-31;42.462500;3.070833;6605;17179;6;5
66016004;BANYULS-SUR-MER-2-SPC;BANYULS-SUR-MER;SPC-222-Baillaury;2004-08-01;2023-08-21;42.465667;3.107167;6635;17183;6;5
66024003;LE BOULOU-1-SPC;LE BOULOU;SPC-222-Le Boulou;2004-08-01;2023-03-27;42.520000;2.831667;6407;17241;87;5
66024004;LE BOULOU-2-SPC;LE BOULOU;SPC-222-Chart du Boulou;2004-08-01;;42.511667;2.853333;6425;17232;87;5
66029002;CAIXAS-SPC;CAIXAS;SPC-222-Mont d'Helene;2004-08-01;;42.576667;2.664167;6269;17304;376;5
66035003;CAMPOUSSY-SPC;CAMPOUSSY;SPC-222-Pic de Baou;2004-08-01;;42.672333;2.460333;6101;17410;662;5
66040001;CASEFABRE-SPC;CASEFABRE;SPC-222-Casefabre;2004-08-01;2008-05-31;42.628333;2.591667;6209;17361;563;5
66042003;CASSAGNES-SPC;CASSAGNES;SPC-222-Cassagnes;2004-08-01;;42.745333;2.588500;6206;17491;335;5
66044001;CASTELNOU-SPC;CASTELNOU;SPC-222-Castelnou;2004-08-01;;42.647000;2.718333;6313;17382;278;5
66045001;CATLLAR-SPC;CATLLAR;SPC-222-Catllar;2004-08-01;2023-03-22;42.632500;2.421833;6070;17365;332;5
66048004;CERBERE-SPC;CERBERE;SPC-222-Pic Juan;2004-08-01;;42.453333;3.136667;6659;17169;430;5
66049006;CERET-1-SPC;CERET;SPC-222-Ceret;2004-08-01;;42.495000;2.743333;6335;17213;160;5
66049007;CERET-2-SPC;CERET;SPC-222-Fontfrede;2004-08-01;;42.452500;2.765833;6354;17166;160;5
66060006;CORSAVY-SPC;CORSAVY;SPC-222-Corvasy;2004-08-01;;42.466667;2.581667;6202;17181;767;5
66065002;ELNE-SPC;ELNE;SPC-222-Elne;2004-08-01;;42.585000;2.985000;6533;17315;21;5
66088002;ILLE-SUR-TET-SPC;ILLE-SUR-TET;SPC-222-Ille/Boules;2004-08-01;2023-03-31;42.666667;2.628333;6239;17404;150;5
66093002;NEOULOUS-SPC;LAROQUE-DES-ALBERES;SPC-223-Neoulous;1964-01-01;;42.482333;2.947833;6503;17200;1140;5
66099002;LLAURO-SPC;LLAURO;SPC-222-Llauro;2004-08-01;;42.549167;2.726667;6321;17273;324;5
66117007;MONT-LOUIS-SPC;MONT-LOUIS;SPC-222-Mont Louis;2004-08-01;;42.540167;2.055000;5768;17263;1576;5
66119004;MOSSET-SPC;MOSSET;SPC-222-Mosset;2004-08-01;;42.682333;2.275333;5949;17421;706;5
66127004;PERILLOS-SPC;OPOUL-PERILLOS;SPC-223-Opoul-Perillos;1964-01-01;;42.896667;2.845500;6416;17661;370;5
66136013;PERPIGNAN-SPC;PERPIGNAN;SPC-222-Perpignan;2004-08-01;;42.705333;2.892667;6456;17448;33;5
66143001;PLANEZES-SPC;PLANEZES;SPC-222-Planezes;2004-08-01;;42.765167;2.620167;6232;17514;141;5
66148007;PORT-VENDRES-SPC;PORT-VENDRES;SPC-222-Madeloc;2004-08-01;2009-06-18;42.490000;3.075000;6608;17210;13;5
66150014;PRATS-DE-MOLLO-LA-PRESTE-1-SPC;PRATS-DE-MOLLO-LA-PRESTE;SPC-222-Puig Colom;2004-08-01;;42.393333;2.513333;6145;17099;745;5
66150015;PRATS-DE-MOLLO-LA-PRESTE-2-SPC;PRATS-DE-MOLLO-LA-PRESTE;SPC-222-ST-SAUVEUR;2004-08-01;;42.414500;2.440833;6086;17123;745;5
66155002;PY-SPC;PY;SPC-222-Py;2004-08-01;;42.498333;2.356667;6016;17216;1020;5
66160002;REYNES-SPC;REYNES;SPC-222-L'AMPLE;2004-08-01;;42.495000;2.698333;6298;17213;258;5
66161001;RIA-SIRACH-SPC;RIA-SIRACH;SPC-222-Engorner;2004-08-01;;42.601667;2.383333;6038;17331;380;5
66164003;RIVESALTES-SPC;RIVESALTES;SPC-222-Rivesaltes;2004-08-01;;42.773000;2.901667;6463;17524;22;5
66165002;RODES-SPC;RODES;SPC-222-Rodès;2004-08-01;;42.658000;2.545000;6171;17394;201;5
66173001;SAINT-FELIU-D'AMONT-SPC;SAINT-FELIU-D'AMONT;SPC-222-St Feliu d'Amont;2004-08-01;;42.689500;2.728500;6321;17430;91;5
66179004;SAINT-LAURENT-DE-CERDANS-SPC;SAINT-LAURENT-DE-CERDANS;SPC-222-St Laurent de Cerd;2004-08-01;;42.406667;2.621667;6235;17114;680;5
66187005;SAINT-PAUL-DE-FENOUILLET-SPC;SAINT-PAUL-DE-FENOUILLET;SPC-222- St Paul de Fenouillet;2004-08-01;;42.799500;2.497667;6132;17552;262;5
66191001;SANSA-SPC;SANSA;SPC-222-Sansa;2004-08-01;;42.603333;2.173333;5865;17333;1448;5
66192002;SAUTO-SPC;SAUTO;SPC-222-FIGUERA;2004-08-01;;42.524167;2.161833;5856;17245;1560;5
66193003;SERDINYA-SPC;SERDINYA;SPC-222-Serdinya;2004-08-01;;42.566667;2.316667;5983;17292;557;5
66198004;SOURNIA-SPC;SOURNIA;SPC-222-Sournia;2004-08-01;;42.725500;2.441333;6086;17469;550;5
66204401;REFUGE CORTALETS;TAURINYA;;2023-07-18;;42.534000;2.459000;6100;17256;2150;5
66205001;TAUTAVEL-SPC;TAUTAVEL;SPC-222-Tautavel;2004-08-01;2012-12-02;42.831667;2.771667;6356;17588;106;5
66207001;TERRATS-SPC;TERRATS;SPC-222-Moulin d'en canterrane;2004-08-01;;42.598333;2.732833;6326;17328;140;5
66217001;TROUILLAS-SPC;TROUILLAS;SPC-222-Trouillas;2004-08-01;;42.595833;2.830833;6406;17326;90;5
66222004;VERNET-LES-BAINS-SPC;VERNET-LES-BAINS;SPC-222-Vernet les bains;2004-08-01;2008-10-13;42.548333;2.386667;6041;17272;661;5
66227001;VILLENEUVE-DE-LA-RAHO-SPC;VILLENEUVE-DE-LA-RAHO;SPC-222-Villeneuve-Raho;2004-08-01;;42.652500;2.926667;6485;17390;51;5
66231001;VINGRAU-SPC;VINGRAU;SPC-222-Vingrau;2004-08-01;;42.838500;2.754333;6342;17596;150;5
67403001;RINGENDORF;RINGENDORF;;2015-08-01;;48.806000;7.553667;9831;24358;226;5
67420002;RUSS-SPC;RUSS;SPC-222-Russ;2012-03-01;;48.496333;7.255833;9634;24000;284;5
68066007;COLMAR-EN-2;COLMAR;ECOLE NORMALE MESSIMY;1926-05-01;1939-05-31;48.071833;7.352833;9736;23533;195;5
68249006;SURCENORD NEIGE;ORBEY;Surcenord;2000-01-01;;48.144667;7.128000;9564;23604;954;5
69042001;LA CHAPELLE-SUR-COISE-SPC;LA CHAPELLE-SUR-COISE;SPC-222-La Chapelle-sur-Coise;2004-08-01;;45.645500;4.493833;7681;20740;720;5
69161002;PROPIERES-SPC;PROPIERES;SPC-223-Propieres;2019-12-01;;46.189500;4.442167;7625;21343;699;5
70061400;BELFAHY_NEIGE;BELFAHY;;2023-11-01;;47.782167;6.733833;9293;23184;831;5
71040002;BLANZY-SPC;BLANZY;SPC-223-Barrage de la Sorme;2004-08-01;;46.718333;4.350833;7539;21929;299;5
71394004;SAINT-BONNET-DE-JOUX-SPC;SAINT-BONNET-DE-JOUX;SPC-222-St-Bonnet-sur-Joux;2004-08-01;;46.482000;4.435833;7611;21668;382;5
71491002;SAINT-YAN-SPC;SAINT-YAN;SPC-223-St-Yan;2004-08-01;;46.412333;4.025000;7298;21583;243;5
73047403;REFUGE DES EVETTES;BONNEVAL-SUR-ARC;;2023-03-03;;45.368167;7.106500;9735;20522;2590;5
73187403;REFUGE NANT DU BEURRE;LA LECHERE;Nant du Beurre;2023-01-10;;45.583000;6.561167;9295;20736;2080;5
73280404;REFUGE DE L'ETENDARD;SAINT-COLOMBAN-DES-VILLARDS;;2020-07-01;;45.203667;6.175167;9015;20299;2436;5
77066003;CERNEUX-SPC;CERNEUX;SPC-223-CERNEUX;2004-08-01;;48.716667;3.365000;6757;24136;158;5
77142002;CRECY-SPC;CRECY-LA-CHAPELLE;SPC-222-FEROLLES;1995-04-01;;48.869167;2.924833;6431;24302;135;5
77168003;EGREVILLE_SPC;EGREVILLE;LE COUDRAY;2010-04-21;;48.184333;2.860167;6389;23540;126;5
77207001;GIRONVILLE;GIRONVILLE;FERME DE L'AVENIR;1992-07-01;;48.161667;2.525000;6140;23514;98;5
77303001;MONTDAUPHIN-SPC;MONTDAUPHIN;SPC-222-CIMETIERE;1996-08-01;;48.853333;3.421667;6796;24289;186;5
77395001;RUMONT-SPC;RUMONT;SPC-222-PLACE DU CHATEAU;1979-05-01;;48.266833;2.497500;6119;23631;137;5
77405002;ST-CYR-MORIN-SPC;SAINT-CYR-SUR-MORIN;SPC-222-CHARNESSEUIL;1992-02-01;;48.927333;3.206167;6637;24369;186;5
77469003;TOUQUIN-SPC;TOUQUIN;SPC-223-TOUQUIN-Lureau;1982-10-01;;48.727833;3.010667;6496;24146;111;5
77490001;VENDREST-SPC;VENDREST;SPC-222-RUE DU PRESBYTERE NEUF;1951-01-01;2019-12-17;49.046667;3.091667;6552;24501;118;5
77507001;VILLENAUXE-SPC;VILLENAUXE-LA-PETITE;SPC-222-TOUSSACQ;1993-04-01;2014-06-02;48.430167;3.315333;6724;23817;60;5
78615002;THIVERVAL-INRAE;THIVERVAL-GRIGNON;GRIGNON - INRA;1986-01-01;;48.838167;1.953167;5718;24267;125;5
79346001;LE VERT-SPC;LE VERT;SPC-222-Le Vert;2004-08-01;2019-07-29;46.093000;-0.392333;3890;21251;40;5
80379003;GLISY BASE;GLISY;Base Aérienne;1940-07-01;1944-07-31;49.866667;2.383333;6033;25411;52;5
81037002;BRASSAC-SPC;BRASSAC;SPC-222-Brassac;2004-08-01;;43.629667;2.497333;6129;18475;494;5
81120003;LABRUGUIERE-SPC;LABRUGUIERE;SPC-222-Labruguière;2004-08-01;2011-02-11;43.539167;2.264167;5941;18375;181;5
81140003;LAVAUR-SPC;LAVAUR;SPC-222-Lavaur;2004-08-01;2011-11-02;43.700667;1.822833;5585;18556;140;5
81165001;MILHARS-SPC;MILHARS;SPC-223-Milhars;2012-03-01;;44.127500;1.882500;5636;19030;137;5
81209001;RIGAUTOU-SPC;AUSSILLON;SPC-222-Pont-de-Larn(Pont-de-rigautou);2004-08-01;;43.516167;2.372167;6028;18349;245;5
81220002;SAINT-SULPICE-SPC;COUFOULEUX;SPC-222-Rabastens;2004-08-01;;43.785833;1.685000;5474;18651;120;5
81278001;SAUVETERRE-SPC;SAUVETERRE;SPC-222-Sauveterre;2004-08-01;;43.473667;2.547500;6170;18302;312;5
81305002;VABRE-SPC;VABRE;SPC-222-Vabre;2004-08-01;;43.693000;2.426333;6072;18546;368;5
81315002;VIELMUR-SUR-AGOUT-SPC;PUYLAURENS;SPC-222-Vielmur-sur-Argout;2004-08-01;;43.618333;2.091667;5802;18463;150;5
82013002;BEAUMONT-DE-LOMAGNE-SPC;BEAUMONT-DE-LOMAGNE;SPC-222-Beaumont-de-Lomagne;2004-01-01;;43.879333;0.992000;4918;18762;124;5
82026002;MONTRICOUX-SPC;BRUNIQUEL;SPC-222-Bruniquel;2004-08-01;;44.072500;1.616667;5422;18971;174;5
82106001;MAUBEC-SPC;MAUBEC;SPC-223-MAUBEC;2013-12-01;2014-10-31;43.814667;0.911500;4852;18692;109;5
82187001;VAREN-SPC;VAREN;SPC-222-Varen;2004-08-01;;44.157167;1.895833;5647;19063;145;5
82190003;VERDUN-SUR-GARONNE-SPC;VERDUN-SUR-GARONNE;SPC-222-Verdun-sur-Garonne;2004-08-01;;43.850833;1.241667;5118;18728;102;5
83120001;ST-ZACHARIE-SPC;SAINT-ZACHARIE;SPC-222-St-Zacharie;1994-06-01;2007-06-05;43.380000;5.700000;8729;18256;264;5
84007002;AVIGNON-INRAE;AVIGNON;INRA-MONTFAVET;1956-01-01;;43.916667;4.876667;8042;18828;32;5
84015003;BEAUMONT-DU-VENTOUX-SPC;BEAUMONT-DU-VENTOUX;SPC-222-MONT-SEREIN;2004-08-01;;44.180833;5.255667;8335;19132;1445;5
84016001;BEDARRIDES-SPC;BEDARRIDES;SPC-223-Bédarrides;2012-03-01;;44.038833;4.896833;8053;18964;31;5
84034001;CAUMONT-SUR-DURANCE-SPC;CAUMONT-SUR-DURANCE;SPC-222-Bonpas;2007-08-01;;43.888500;4.923667;8080;18798;51;5
84044002;ENTRECHAUX-SPC;ENTRECHAUX;SPC-222-Entrechaux;2004-08-01;;44.228833;5.137000;8239;19182;240;5
84069002;MALAUCENE-SPC;MALAUCENE;SPC-222-VEAUX;2004-08-01;;44.214167;5.214167;8301;19168;323;5
84086002;OPPEDE-LA-GARRIGUE-SPC;OPPEDE;SPC-223-Oppede;2012-03-01;;43.857500;5.161500;8273;18770;110;5
84087004;ORANGE-SPC;ORANGE;SPC-223-Orange;2012-03-01;;44.159500;4.802167;7973;19096;50;5
84098001;ROAIX-SPC;ROAIX;SPC-223-Roaix;2004-08-01;2013-12-10;44.241667;5.013000;8139;19192;176;5
84112001;SAINT-MARTIN-DE-CASTILLON-SPC;SAINT-MARTIN-DE-CASTILLON;SPC-223-St-Martin-de-Castillon;2012-03-01;;43.850000;5.485833;8534;18771;280;5
84123005;SAULT-SPC;SAULT;SPC-222-Sault;2004-08-01;;44.091667;5.413333;8465;19037;757;5
84141001;VEDENE-SPC;VEDENE;SPC-223-Vedene;2012-03-01;;43.981333;4.888333;8049;18900;30;5
84148001;VILLES-SUR-AUZON-SPC;VILLES-SUR-AUZON;SPC-222-Auzon;2004-08-01;2021-07-01;44.054333;5.232167;8322;18990;295;5
85238001;SAINT-LAURENT-SUR-SEVRE-SPC;SAINT-LAURENT-SUR-SEVRE;SPC-223-St-Laurent-sur-Sèvre;2006-09-01;2016-02-16;46.958667;-0.888333;3546;22227;124;5
86247001;SAINT-SAVIOL-SPC;SAINT-SAVIOL;SPC-222-St-Saviol;2004-08-01;2019-07-29;46.135833;0.242167;4381;21283;133;5
87120002;CIRAT-LA PORCHERIE-SPC;LA PORCHERIE;SPC-223-Cirat- La Porcherie;1968-01-01;;45.569833;1.580667;5409;20636;521;5
88021001;AUTREY-SPC;AUTREY;SPC-223-Autrey-Gare;2011-10-01;;48.296333;6.686667;9226;23753;323;5
88047001;BEGNECOURT-SPC;BEGNECOURT;SPC-223-Begnecourt;2011-10-01;;48.213000;6.150000;8833;23640;290;5
88051001;BELMONT-SUR-VAIR-SPC;BELMONT-SUR-VAIR;SPC-223-Belmont-sur-Vair;2011-10-01;;48.253833;5.902667;8647;23676;323;5
88081002;BUSSANG-SPC;BUSSANG;SPC-223-Bussang;2006-09-01;;47.901167;6.864667;9384;23322;832;5
88112001;COLROY-LA-GRANDE-SPC;PROVENCHERES-ET-COLROY;SPC-223-Colroy-la-Grande;2004-08-01;;48.335000;7.105833;9534;23814;540;5
88196010;GERARDMER-SPC;GERARDMER;SPC-223-Gérardmer;2006-09-01;;48.072167;6.834167;9350;23510;666;5
88215002;GRANDRUPT-SPC;GRANDRUPT;SPC-223-Grandrupt;2004-08-01;;48.368833;7.073500;9508;23850;632;5
88304007;MIRECOURT-SPC;MIRECOURT;SPC-223-Mirecourt;2004-08-01;;48.307833;6.125833;8810;23744;295;5
88321007;NEUFCHATEAU-SPC;NEUFCHATEAU;SPC-223-Neufchateau;2004-08-01;;48.356167;5.680000;8477;23783;291;5
88349003;PLAINFAING-SPC;PLAINFAING;SPC-223-Plainfaing;2004-08-01;;48.141667;7.036667;9496;23596;915;5
88383003;REMIREMONT-SPC;REMIREMONT;SPC-223-Remiremont;2004-08-01;2022-02-02;48.020000;6.596667;9176;23442;399;5
88386001;REMOMEIX-SPC;REMOMEIX;SPC-223-Remomeix;2004-08-01;;48.265000;7.001667;9462;23732;355;5
90065002;BALLON D'ALSACE;LEPUIX;BALLON D'ALSACE RESTAURANT;1984-10-01;;47.818333;6.840000;9370;23229;1120;5
91272001;GIF-SUR-YVETTE-INRAE;SAINT-AUBIN;Le Moulon;2010-01-01;;48.714333;2.151000;5863;24129;157;5
94015002;BRY-SPC;BRY-SUR-MARNE;;2021-03-17;;48.833500;2.522667;6136;24261;90;5
95446001;NESLES-SPC;NESLES-LA-VALLEE;SPC-222-FONTENELLE;1971-02-01;;49.114000;2.154333;5866;24573;118;5
97405480;PETITE-ILE - CIRAD;PETITE-ILE;Petite-Île;2000-03-01;2023-11-10;-21.365333;55.558333;3505;76367;155;5
97415511;SAINT-PAUL - CIRAD;SAINT-PAUL;Le Chemin Lambert;1997-04-27;2022-02-04;-20.975333;55.325000;3259;76796;186;5
97415579;VUE-BELLE LES HAUTS - CIRAD;SAINT-PAUL;Hauts de Vue-Belle;2003-09-11;;-21.082000;55.292667;3226;76678;722;5
97416491;SAINT-PIERRE-PORT;SAINT-PIERRE;PORT;1884-07-01;1909-12-31;-21.343667;55.478167;286;50;4;5
